,Address,City,State,Zip,Price,Beds,Baths,Home size,Lot size,Latitude,Longitude
0,2412 Palmer Ave,Belmont,CA,94002,1459000,3,2.0,1360.0,5001.0,37.516781,-122.30462299999999
1,1909 Hillman Ave,Belmont,CA,94002,1595000,4,2.0,2220.0,3999.0,37.521972,-122.29407900000001
2,641 Waltermire St,Belmont,CA,94002,899999,2,1.0,840.0,4234.0,37.520233000000005,-122.27314399999999
3,2706 Sequoia Way,Belmont,CA,94002,1588000,3,2.0,1860.0,5210.0,37.520192,-122.30943700000002
4,1568 Winding Way,Belmont,CA,94002,1999000,4,3.5,2900.0,16117.2,37.52428,-122.29124099999999
5,1440 5th Ave,Belmont,CA,94002,1249950,2,1.0,1170.0,5001.0,37.516227,-122.27276299999998
6,1527 Ridge Rd,Belmont,CA,94002,1485000,3,2.0,1220.0,5502.0,37.522964,-122.290578
7,1249 North Rd,Belmont,CA,94002,1995000,4,3.5,2720.0,9601.0,37.523886,-122.28686200000001
9,685 South Rd,Belmont,CA,94002,1988000,3,3.0,2610.0,11325.6,37.520637,-122.281695
10,2501 Lincoln Ave,Belmont,CA,94002,1598000,3,2.0,1508.0,6100.0,37.518087,-122.306904
11,1569 Sixth Ave,Belmont,CA,94002,2198000,5,3.0,3160.0,11761.2,37.514502,-122.270684
12,2021 Lyon Ave,Belmont,CA,94002,1695000,3,2.5,1540.0,3951.0,37.522995,-122.298666
13,600 Kingston Rd,Belmont,CA,94002,2700000,3,2.0,2080.0,13939.2,37.522085,-122.281924
15,2417 Hastings Dr,Belmont,CA,94002,1795000,3,2.5,2210.0,3938.0,37.505247,-122.29633600000001
16,213 Visitacion Ave,Brisbane,CA,94005,698000,1,1.0,850.0,2614.0,37.682818,-122.403095
17,260 Monterey St,Brisbane,CA,94005,1438000,4,2.5,2380.0,3485.0,37.683129,-122.401917
18,478 Kings Rd,Brisbane,CA,94005,1588000,3,3.0,1790.0,8712.0,37.678221,-122.400926
19,271 Humboldt Rd,Brisbane,CA,94005,1498000,3,2.5,2200.0,5663.0,37.683422,-122.40650600000001
20,1812 Easton Dr,Burlingame,CA,94010,2670000,4,4.5,2790.0,5449.0,37.583493,-122.37166200000001
21,413 Hillsborough Blvd,Hillsborough,CA,94010,4995000,4,3.5,3126.0,15246.0,37.561393,-122.35351000000001
22,1060 Macadamia Dr,Hillsborough,CA,94010,3499000,5,4.5,3650.0,21780.0,37.571956,-122.38191299999998
23,240 Pinehill Rd,Hillsborough,CA,94010,17900000,3,5.5,8930.0,89733.6,37.557534999999994,-122.366068
24,119 Bridge Rd,Hillsborough,CA,94010,13880000,6,8.5,10510.0,75358.8,37.562276000000004,-122.332823
26,1277 Balboa Ave,Burlingame,CA,94010,3300000,4,4.0,2698.0,5001.0,37.584879,-122.36978400000001
27,109 DE Sabla Rd,Hillsborough,CA,94010,9875000,6,6.5,7883.0,38768.4,37.563543,-122.33276799999999
28,1120 Bromfield Rd,Hillsborough,CA,94010,6800000,5,4.5,4620.0,15681.6,37.562958,-122.356265
29,1431 DE Soto Ave,Burlingame,CA,94010,1995000,3,2.0,1400.0,5458.0,37.583335,-122.37765300000001
30,115 Robin Rd,Hillsborough,CA,94010,6150000,4,4.5,4400.0,87120.0,37.560115,-122.362224
31,1061 San Raymundo Rd,Hillsborough,CA,94010,7950000,6,8.0,8210.0,167270.4,37.559162,-122.353372
32,933 Baileyana Rd,Hillsborough,CA,94010,6498000,4,3.5,3985.0,15681.6,37.57541,-122.37688700000001
33,1540 Los Montes Dr,Burlingame,CA,94010,2375000,4,2.5,2540.0,10454.4,37.575551000000004,-122.395664
34,2600 Skyfarm Dr,Hillsborough,CA,94010,6250000,4,4.5,3980.0,51400.8,37.559441,-122.37694499999999
35,610 El Cerrito Ave,Hillsborough,CA,94010,5488000,4,4.5,5030.0,25264.8,37.557494,-122.34253999999999
36,1441 Alvarado Ave,Burlingame,CA,94010,2895000,3,2.5,2730.0,9130.0,37.579399,-122.381681
37,28 Bloomfield Rd,Burlingame,CA,94010,4498000,5,4.5,3586.0,7850.0,37.580125,-122.337185
38,1525 Los Montes Dr,Burlingame,CA,94010,2968000,5,4.5,3200.0,8581.0,37.57443,-122.395533
39,2831 Adeline Dr,Burlingame,CA,94010,2088000,3,2.0,1750.0,9374.0,37.580490000000005,-122.384883
40,1130 Southdown Rd,Hillsborough,CA,94010,2795000,3,2.0,2140.0,14810.4,37.549525,-122.35320300000001
41,2714 Easton Dr,Burlingame,CA,94010,4450000,5,3.5,3983.0,7436.0,37.578216,-122.378424
42,300 Sierra Dr,Hillsborough,CA,94010,4750000,4,4.5,3920.0,30492.0,37.558479999999996,-122.3413
43,1375 Black Mountain Rd,Hillsborough,CA,94010,2750000,4,3.0,2950.0,30492.0,37.546956,-122.35631599999999
44,2816 Easton Dr,Burlingame,CA,94010,3988000,6,5.0,4592.0,11761.2,37.577628999999995,-122.38061699999999
45,15 Pilarcitos Ct,Hillsborough,CA,94010,3950000,5,4.5,3678.0,63162.0,37.53208,-122.36013899999999
46,1308 Castillo Ave,Burlingame,CA,94010,4685000,4,3.0,3010.0,5998.0,37.580134,-122.376543
47,1541 Burlingame Ave,Burlingame,CA,94010,4895000,4,3.5,3524.0,8533.0,37.57489,-122.35068000000001
48,2856 Adeline Dr,Burlingame,CA,94010,2595000,4,3.0,3420.0,37026.0,37.581942,-122.386352
49,20 Santa Felicia Ct,Hillsborough,CA,94010,4888000,6,6.5,5460.0,31798.8,37.5446,-122.33505500000001
50,926 Baileyana Rd,Hillsborough,CA,94010,5798000,4,3.5,5275.0,15246.0,37.575396000000005,-122.37622900000001
51,463 El Arroyo Rd,Hillsborough,CA,94010,5750000,5,4.5,4650.0,27878.4,37.561287,-122.357211
52,430 Moseley Rd,Hillsborough,CA,94010,3980000,4,3.0,3392.0,30056.4,37.554255,-122.366276
53,45 W Avondale Rd,Hillsborough,CA,94010,3550000,5,3.0,3650.0,21780.0,37.545087,-122.358901
54,760 Crystal Springs Rd,Hillsborough,CA,94010,5395000,5,6.5,6175.0,27878.4,37.553632,-122.339017
55,1369 DE Soto Ave,Burlingame,CA,94010,2788000,4,3.0,2590.0,5998.0,37.582089,-122.375657
56,2116 Broadway,Burlingame,CA,94010,2380000,3,2.0,2040.0,5998.0,37.579594,-122.37066200000001
57,150 Woodridge Rd,Hillsborough,CA,94010,4399000,6,4.5,5225.0,21780.0,37.546746,-122.34964099999999
58,10 Bluebell Ln,Hillsborough,CA,94010,2999000,4,4.0,4580.0,23522.4,37.538101,-122.352787
59,320 Robinwood Ln,Hillsborough,CA,94010,5800000,4,5.0,5042.0,22651.2,37.550397,-122.36358200000001
60,835 Longview Rd,Hillsborough,CA,94010,3490000,4,3.0,2940.0,19166.4,37.553235,-122.34376999999999
61,2435 Summit Dr,Hillsborough,CA,94010,4398000,5,4.0,3870.0,16552.8,37.574844,-122.378382
62,790 Bowhill Rd,Hillsborough,CA,94010,3695000,4,3.0,3426.0,21780.0,37.553233,-122.34103400000001
63,205 Glen Aulin Ln,Burlingame,CA,94010,4680000,5,4.5,4543.0,10018.8,37.571608000000005,-122.388525
64,147 Oakridge Dr,Daly City,CA,94014,898000,3,2.0,1270.0,6098.0,37.706337,-122.42801200000001
65,488 Willits St,Daly City,CA,94014,999950,4,2.0,1668.0,3001.0,37.696958,-122.468144
66,1003 Ocean View Ave,Daly City,CA,94014,1089000,3,2.5,2304.0,1647.0,37.702138,-122.45918600000002
67,410 Ford St,Daly City,CA,94014,1188000,3,3.0,1770.0,2500.0,37.693655,-122.45858100000001
68,267 Abbot Ave,Daly City,CA,94014,799888,2,1.0,1030.0,8002.0,37.694966,-122.46075900000001
69,Nouveau,Daly City,CA,94014,1496995,4,3.5,2853.0,,37.700511,-122.413499
70,516 Southhill Blvd,Daly City,CA,94014,899000,3,2.0,1190.0,4591.0,37.705110999999995,-122.439669
71,116 Woodrow St,Daly City,CA,94014,575000,2,1.0,770.0,3049.0,37.702763,-122.467878
72,2 Rosebud Ct,Daly City,CA,94014,1075000,3,3.0,1573.0,1307.0,37.686842,-122.462254
73,357 Winchester St,Daly City,CA,94014,775000,3,2.0,1795.0,2614.0,37.705638,-122.45446499999998
74,262 Alta Vista Way,Daly City,CA,94014,949000,4,3.0,,5227.0,37.704322999999995,-122.440502
75,41 Frankfort St,Daly City,CA,94014,799000,3,2.0,1390.0,2178.0,37.706855,-122.442132
76,271 Irvington St,Daly City,CA,94014,885000,4,2.0,1060.0,2500.0,37.706815999999996,-122.455574
77,67 Royce Way,Daly City,CA,94014,1049000,3,2.0,1190.0,2300.0,37.691921,-122.454471
78,169 Parkview Ave,Daly City,CA,94014,1100000,3,2.0,2045.0,2614.0,37.70106,-122.46561100000001
79,333 Peoria St,Daly City,CA,94014,699000,4,1.0,1130.0,4792.0,37.703009,-122.457669
80,143 Hillcrest Dr,Daly City,CA,94014,998000,5,3.0,1610.0,2500.0,37.706198,-122.465006
81,995 Ocean View Ave,Daly City,CA,94014,1349000,3,2.5,2265.0,1721.0,37.701838,-122.459199
82,35-39 Mission Cir,Daly City,CA,94014,1100000,3,2.0,1922.0,2675.0,37.706438,-122.46207199999999
83,339 Frankfort St,Daly City,CA,94014,1150000,5,3.0,1990.0,3001.0,37.704563,-122.448722
84,1 Martin,Daly City,CA,94014,1521995,5,4.5,2914.0,2448.0,37.700645,-122.41358799999999
85,Ascend,Daly City,CA,94014,1519995,4,3.5,3028.0,,37.700511,-122.413499
86,149 Abbot Ave,Daly City,CA,94014,845000,3,2.0,1160.0,2614.0,37.696804,-122.460812
87,225 Baltimore Way,Daly City,CA,94014,928000,2,1.0,1320.0,3485.0,37.707794,-122.434992
88,308 2nd Ave,Daly City,CA,94014,950000,3,2.0,1550.0,2178.0,37.687614,-122.463408
89,280 E Market St,Daly City,CA,94014,1000000,3,3.0,1300.0,1742.0,37.689529,-122.46245800000001
90,1004 Ocean View Ave,Daly City,CA,94014,1264039,4,3.5,2209.0,1400.0,37.702278,-122.45948600000001
91,1 Martin St,Daly City,CA,94014,1521995,5,4.5,2917.0,2450.0,37.700645,-122.41358799999999
92,27 Westline Dr,Daly City,CA,94015,1095000,4,2.0,2250.0,3302.0,37.665708,-122.491148
93,54 Pinehaven Dr,Daly City,CA,94015,998888,3,1.5,1330.0,3798.0,37.694334999999995,-122.489783
94,263 St Catherine Dr,Daly City,CA,94015,1088000,3,2.5,1720.0,3485.0,37.677777,-122.481378
95,141 Ashland Dr,Daly City,CA,94015,988000,3,1.0,1300.0,3202.0,37.697796999999994,-122.491506
96,103 Village Ln,Daly City,CA,94015,1050000,2,1.0,1440.0,4792.0,37.693917,-122.47486699999999
97,142 Belcrest Ave,Daly City,CA,94015,698000,3,1.0,107.0,3300.0,37.664659,-122.490835
98,144 Westmoor Ave,Daly City,CA,94015,979888,3,2.0,1410.0,3485.0,37.683469,-122.48528300000001
99,119 Lycett Cir,Daly City,CA,94015,999888,4,3.0,1760.0,3920.0,37.655603,-122.46531100000001
100,575 Verducci Dr,Daly City,CA,94015,995000,4,3.0,1790.0,3049.0,37.650607,-122.46216100000001
101,144 Mirada Dr,Daly City,CA,94015,1390000,5,4.0,1995.0,3485.0,37.683174,-122.476037
102,1039 87th St,Daly City,CA,94015,998000,4,1.0,1620.0,3402.0,37.692624,-122.489984
103,19 Fairmont Dr,Daly City,CA,94015,988888,3,2.0,1430.0,3402.0,37.700386,-122.492919
104,824 Ellis Dr,Daly City,CA,94015,849000,2,1.0,910.0,5227.0,37.695659,-122.48501399999999
105,98 Huntington Dr,Daly City,CA,94015,990000,3,2.0,1160.0,3485.0,37.68119,-122.485308
106,264 San Fernando Way,Daly City,CA,94015,980000,6,4.0,2170.0,3485.0,37.680877,-122.477281
107,63 Montebello Dr,Daly City,CA,94015,948888,3,1.0,1060.0,3960.0,37.665504,-122.48817199999999
108,227 Del Prado Dr,Daly City,CA,94015,999000,4,3.0,1640.0,3485.0,37.6789,-122.47962
109,78 Norwood Ave,Daly City,CA,94015,989000,4,1.0,1030.0,4487.0,37.657944,-122.46464099999999
110,620 Larchmont Dr,Daly City,CA,94015,1198000,4,2.0,1454.0,7261.0,37.687509999999996,-122.483151
111,60 Westdale Ave,Daly City,CA,94015,895000,2,1.0,1220.0,3485.0,37.706551,-122.478206
112,35 Wembley Dr,Daly City,CA,94015,923000,3,2.0,1330.0,3485.0,37.662346,-122.470023
113,196 Castillejo Dr,Daly City,CA,94015,1150000,4,3.0,1520.0,3428.0,37.669478000000005,-122.48128899999999
114,1096 S Mayfair Ave,Daly City,CA,94015,1088000,4,2.0,1611.0,3485.0,37.692919,-122.493928
115,80 Beachside Ct,Daly City,CA,94015,1095000,3,2.0,1250.0,3920.0,37.662663,-122.49061200000001
116,265 Westridge Ave,Daly City,CA,94015,1160000,5,3.0,1650.0,3485.0,37.689245,-122.494006
117,32 Fairlawn Ct,Daly City,CA,94015,1095000,4,3.0,1619.0,3485.0,37.696408,-122.48598500000001
118,50 Parkwood Dr,Daly City,CA,94015,1250000,3,3.0,2010.0,3498.0,37.701005,-122.47946599999999
119,47 Fairmont Dr,Daly City,CA,94015,1188000,3,2.0,1910.0,3485.0,37.700998999999996,-122.493205
120,1321 S Mayfair Ave,Daly City,CA,94015,1180000,4,2.0,1759.0,3485.0,37.688107,-122.488881
121,82 Nelson Ct,Daly City,CA,94015,1049000,4,2.0,1470.0,3485.0,37.653224,-122.466714
122,425 Almeria Ave,El Granada,CA,94018,1399000,3,3.0,2950.0,4948.0,37.510296000000004,-122.479271
125,281 Shelter Cove Dr,El Granada,CA,94018,1050000,3,2.0,1480.0,5401.0,37.512089,-122.48769399999999
126,822 San Carlos Ave,El Granada,CA,94018,1680000,3,3.5,3308.0,9378.0,37.510921999999994,-122.478182
128,246 San Clemente Rd,El Granada,CA,94018,1295000,3,2.5,2850.0,13503.6,37.506992,-122.465521
129,247 Columbus St,El Granada,CA,94018,1100000,3,1.5,1250.0,6251.0,37.505881,-122.477007
130,346 Carmel Ave,El Granada,CA,94018,1199000,4,3.0,1690.0,6098.0,37.507628000000004,-122.476076
131,230 El Granada Blvd,El Granada,CA,94018,1295000,5,3.5,2610.0,6970.0,37.506019,-122.463408
133,301 Myrtle St,Half Moon Bay,CA,94019,949950,2,2.0,1160.0,7505.0,37.458826,-122.439504
134,2065 Touraine Ln,Half Moon Bay,CA,94019,1150000,3,2.0,1790.0,7292.0,37.486464,-122.44346499999999
135,380 Burning Tree Ct,Half Moon Bay,CA,94019,1615000,4,2.5,3470.0,5502.0,37.433363,-122.42971000000001
136,2165 Higgins Canyon Rd,Half Moon Bay,CA,94019,4750000,6,4.5,4500.0,422967.6,37.441217,-122.39801200000001
137,630 Miramar Dr,Half Moon Bay,CA,94019,2390000,5,4.0,4140.0,9919.0,37.495994,-122.45016399999999
138,11650 San Mateo Rd,Half Moon Bay,CA,94019,2750000,3,2.0,9999.0,1267160.4,37.492657,-122.389679
139,516 Highland Ave,Half Moon Bay,CA,94019,1475000,4,3.0,3083.0,8799.0,37.472595,-122.434001
140,221 Correas St,Half Moon Bay,CA,94019,2495000,5,4.0,3722.0,10018.8,37.46306,-122.44110400000001
141,401 Antoinette Ln,Half Moon Bay,CA,94019,1279000,3,2.0,1460.0,5998.0,37.475874,-122.444865
142,400 Irish Ridge Rd,Half Moon Bay,CA,94019,2950000,3,3.0,2250.0,1742400.0,37.405953000000004,-122.37616399999999
143,320 Coronado Ave,Half Moon Bay,CA,94019,1525000,3,3.0,2250.0,8799.0,37.497240000000005,-122.459268
144,437 Seymour St,Half Moon Bay,CA,94019,2000000,4,4.5,3862.0,9875.0,37.453516,-122.434747
145,41 Turnberry Rd,Half Moon Bay,CA,94019,2000000,4,2.5,3924.0,7200.0,37.437978,-122.435308
146,412 Magellan Ave,Half Moon Bay,CA,94019,1865000,4,3.0,3011.0,8799.0,37.498661,-122.458785
147,231 Shelter Cove Dr,El Granada,CA,94019,849000,2,1.0,1010.0,5502.0,37.5114,-122.48740600000001
148,160 Turnberry Rd,Half Moon Bay,CA,94019,1769000,5,3.0,3266.0,7139.0,37.437393,-122.433425
149,48 Harvard Ave,Half Moon Bay,CA,94019,575000,2,1.0,672.0,3498.0,37.503444,-122.492558
150,217 Miramontes Ave,Half Moon Bay,CA,94019,1725000,4,2.5,3285.0,7405.0,37.464057000000004,-122.441126
151,655 Santiago Ave,Half Moon Bay,CA,94019,1795000,3,3.5,2180.0,4848.0,37.500372999999996,-122.46195900000001
152,731 El Granada Blvd,El Granada,CA,94019,2198000,4,3.5,4424.0,8799.0,37.514695,-122.463044
153,4 Pinehurst Ln,Half Moon Bay,CA,94019,1459000,3,3.0,2374.0,4622.0,37.436191,-122.433442
154,688 Silver Ave,Half Moon Bay,CA,94019,1395000,3,2.5,2210.0,8712.0,37.476434999999995,-122.43096299999999
155,251 Granelli Ave,Half Moon Bay,CA,94019,1695000,4,2.5,2940.0,5502.0,37.459575,-122.439908
156,2029 Bordeaux Ln,Half Moon Bay,CA,94019,1299000,5,3.0,2710.0,8120.0,37.485478,-122.44473500000001
157,14 Pinehurst Ln,Half Moon Bay,CA,94019,1465000,3,2.5,2715.0,4386.0,37.436079,-122.43251699999999
158,324 Garcia Ave,Half Moon Bay,CA,94019,1600000,4,2.0,2098.0,8098.0,37.460368,-122.439957
159,262 San Clemente Rd,El Granada,CA,94019,1195000,3,2.0,1480.0,9901.0,37.507318,-122.465276
160,400 Redondo Beach Rd,Half Moon Bay,CA,94019,1349000,3,2.0,1122.0,7871.0,37.440137,-122.43323799999999
161,28 Pinehurst Ln,Half Moon Bay,CA,94019,1575000,3,2.5,2300.0,4957.0,37.435741,-122.4315
162,2350 Winged Foot Rd,Half Moon Bay,CA,94019,1675000,4,3.0,2940.0,8207.0,37.431633000000005,-122.432273
163,409 Saint Joseph Ave,Half Moon Bay,CA,94019,1299888,4,2.0,2060.0,5998.0,37.475678,-122.44368999999999
164,2639 Higgins Canyon Rd,Half Moon Bay,CA,94019,1899000,4,2.5,2470.0,59241.6,37.438645,-122.39156899999999
165,127 Carnoustie Dr,Half Moon Bay,CA,94019,2795000,4,4.0,4214.0,10018.8,37.439159000000004,-122.43680900000001
166,123 Ocean Ave,Half Moon Bay,CA,94019,2300000,1,2.0,2590.0,2500.0,37.463629,-122.441864
167,574 Kelly St,Half Moon Bay,CA,94019,1290000,2,2.5,1676.0,2474.0,37.463569,-122.43096200000001
168,120 Hildebrand Rd,La Honda,CA,94020,2250000,4,3.0,3972.0,874684.8,37.325935,-122.262257
169,137 Shelden Rd,La Honda,CA,94020,699000,3,2.0,1310.0,30056.4,37.311694,-122.273913
170,13940 Pescadero Rd,La Honda,CA,94020,598000,2,1.0,700.0,19166.4,37.298959,-122.264164
172,30 Blind St,La Honda,CA,94020,898000,4,2.0,1730.0,26136.0,37.309328,-122.276524
173,126 Canada Vis,La Honda,CA,94020,1425000,3,2.5,3080.0,20473.2,37.319662,-122.26967900000001
174,7145 LA Honda Rd,La Honda,CA,94020,1599000,1,1.0,837.0,444747.6,37.315604,-122.28855
175,138 Back Rd,La Honda,CA,94020,1750000,3,3.5,2580.0,192535.2,37.260359,-122.20786299999999
176,265 Portola State Park Rd,La Honda,CA,94020,2298000,3,2.0,2720.0,519235.2,37.267417,-122.20941499999999
177,8125 LA Honda Rd,La Honda,CA,94020,1249000,4,1.0,1410.0,59241.6,37.311208,-122.277887
178,26460 Taaffe Rd,Los Altos Hills,CA,94022,3650000,4,4.5,4247.0,43995.6,37.364845,-122.141915
179,725 University Ave,Los Altos,CA,94022,6800000,5,3.0,4122.0,20473.2,37.370134,-122.114851
180,27861 Natoma Rd,Los Altos Hills,CA,94022,16000000,6,7.5,8680.0,130680.0,37.370415,-122.153154
181,28011 Elena Rd,Los Altos Hills,CA,94022,30000000,6,5.5,8912.0,2090880.0,37.383114,-122.15571100000001
183,3849 Page Mill Rd,Los Altos Hills,CA,94022,2980000,4,4.5,5008.0,435600.0,37.342421,-122.17290200000001
184,706 Orange Ave,Los Altos,CA,94022,3550000,3,2.5,1478.0,6599.0,37.370507,-122.114623
185,27500 La Vida Real,Los Altos Hills,CA,94022,49990000,5,7.5,20982.0,349786.8,37.366471999999995,-122.149971
186,12501 Zappettini Ct,Los Altos Hills,CA,94022,8888000,6,7.5,8625.0,49658.4,37.365122,-122.16531
187,27440 Sherlock Ct,Los Altos Hills,CA,94022,3395000,4,3.0,3085.0,45302.4,37.359159999999996,-122.16082
188,780 S El Monte Ave,Los Altos,CA,94022,5495888,5,4.5,4450.0,17859.6,37.367309999999996,-122.11343000000001
189,27466 Sunrise Farm Rd,Los Altos Hills,CA,94022,9488000,6,5.5,6922.0,57063.6,37.366367,-122.15470900000001
190,12661 Robleda Rd,Los Altos Hills,CA,94022,8950000,5,6.0,10332.0,87120.0,37.367847999999995,-122.134455
191,212 Del Monte Ave,Los Altos,CA,94022,2098000,2,1.0,1055.0,6077.0,37.397408,-122.11869899999999
192,111 S Gordon Way,Los Altos,CA,94022,6988000,5,4.5,4452.0,19166.4,37.365596999999994,-122.148499
193,13830 Page Mill Rd,Los Altos Hills,CA,94022,12988888,4,2.5,2131.0,219106.8,37.382022,-122.164075
194,476 Mundell Way,Los Altos,CA,94022,3798000,4,3.5,2958.0,25264.8,37.400126,-122.12481399999999
195,370 Juanita Way,Los Altos,CA,94022,3488000,5,3.0,2953.0,13068.0,37.391149,-122.12303
196,13981 Fremont Pines Ln,Los Altos Hills,CA,94022,8800000,5,4.5,5166.0,49222.8,37.382090000000005,-122.13164499999999
197,640 Palm Ave,Los Altos,CA,94022,2998000,3,3.0,2099.0,7466.0,37.371525,-122.114607
198,14433 Debell Rd,Los Altos Hills,CA,94022,3488000,3,3.0,2161.0,46609.2,37.386777,-122.131619
199,44 Mount Hamilton Ave,Los Altos,CA,94022,3888000,4,3.0,3045.0,8699.0,37.383019,-122.115226
200,308 Blue Oak Ln,Los Altos,CA,94022,3450000,4,3.0,3190.0,18295.2,37.385985,-122.12440600000001
201,12190 Padre Ct,Los Altos Hills,CA,94022,6288000,5,4.0,6582.0,50529.6,37.357834000000004,-122.138429
202,27760 Edgerton Rd,Los Altos Hills,CA,94022,5295000,4,6.5,7886.0,70567.2,37.370011,-122.15786299999999
203,11511 Summit Wood Rd,Los Altos Hills,CA,94022,3955000,4,4.0,4408.0,78843.6,37.354112,-122.135579
204,169 E Portola Ave,Los Altos,CA,94022,3388000,5,3.0,2660.0,9714.0,37.39612,-122.11024499999999
205,241 N Clark Ave,Los Altos,CA,94022,4298000,4,3.5,3080.0,11761.2,37.385766,-122.100803
206,26920 Almaden Ct,Los Altos Hills,CA,94022,3695000,4,2.5,3224.0,45738.0,37.362827,-122.15142900000001
207,25725 Altamont Rd,Los Altos Hills,CA,94022,3998000,4,3.5,3405.0,52707.6,37.358227,-122.14097199999999
208,25055 LA Loma Dr,Los Altos Hills,CA,94022,8488000,5,5.5,7614.0,43124.4,37.353843,-122.130826
209,26464 Taaffe Rd,Los Altos Hills,CA,94022,3398888,3,2.0,1513.0,41382.0,37.365421000000005,-122.14251200000001
210,200 University Ave,Los Altos,CA,94022,5999999,4,3.5,4116.0,26571.6,37.378275,-122.119868
211,25240 Cantata Way,Los Altos Hills,CA,94022,2300000,1,1.0,960.0,88426.8,37.364674,-122.119766
213,675 Jay St,Los Altos,CA,94022,6495000,6,4.5,4710.0,13068.0,37.386537,-122.09728799999999
214,26088 Duval Way,Los Altos Hills,CA,94022,6998000,5,4.5,4307.0,43995.6,37.364548,-122.133894
215,1320 Harwalt Dr,Los Altos,CA,94024,2698000,4,2.5,2233.0,10890.0,37.358684000000004,-122.065514
216,606 Paco Dr,Los Altos,CA,94024,2998000,3,2.0,1185.0,15246.0,37.376129999999996,-122.099897
217,510 Sequoia Dr,Los Altos,CA,94024,2798000,2,1.5,1758.0,18730.8,37.339488,-122.074242
218,1161 Payne Dr,Los Altos,CA,94024,3988000,5,3.0,4223.0,13068.0,37.35604,-122.08225900000001
219,11040 Eastbrook Ave,Los Altos,CA,94024,2998000,4,2.5,2310.0,43995.6,37.344882,-122.09773200000001
220,931 Matts Ct,Los Altos,CA,94024,2199988,3,2.5,2164.0,11761.2,37.366321,-122.11436699999999
221,1150 Grant Rd,Los Altos,CA,94024,1998000,3,2.0,1329.0,11325.6,37.362679,-122.078107
222,1416 Fallen Leaf Ln,Los Altos,CA,94024,2798000,4,2.0,1850.0,10890.0,37.356203,-122.064982
223,1347 Morton Ave,Los Altos,CA,94024,2758000,3,2.0,2018.0,10890.0,37.348457,-122.076273
224,690 Loyola Dr,Los Altos Hills,CA,94024,13950000,7,5.5,7700.0,164656.8,37.346061,-122.09583500000001
225,1564 Vineyard Dr,Los Altos,CA,94024,2595000,3,3.0,2049.0,10890.0,37.336186,-122.070679
226,1909 Farndon Ave,Los Altos,CA,94024,2599000,3,2.0,1578.0,9736.0,37.344417,-122.06678400000001
227,353 Costello Dr,Los Altos,CA,94024,3698000,3,2.5,2536.0,29620.8,37.362645,-122.10710300000001
228,10718 Mora Dr,Los Altos Hills,CA,94024,19999888,6,8.5,9677.0,118047.6,37.338635,-122.09718899999999
229,1849 Grant Park Ln,Los Altos,CA,94024,3488888,4,3.5,3260.0,11325.6,37.346136,-122.06956799999999
230,1686 Dalehurst Ave,Los Altos,CA,94024,2298000,3,2.0,1243.0,14374.8,37.347829,-122.071482
231,1060 Golden Way,Los Altos,CA,94024,2995000,3,2.0,2034.0,10890.0,37.364015,-122.09123899999999
232,1739 Joel Way,Los Altos,CA,94024,2598888,5,2.5,2490.0,11761.2,37.359404,-122.063753
233,23691 Camino Hermoso Dr,Los Altos Hills,CA,94024,5500000,3,1.5,2058.0,59241.6,37.344822,-122.11108
234,1495 Cedar Pl,Los Altos,CA,94024,2685000,4,2.0,2132.0,10890.0,37.335254,-122.071816
235,10450 Creston Dr,Los Altos,CA,94024,2988000,4,2.5,3033.0,14810.4,37.329238000000004,-122.060093
236,2275 Deodara Dr,Los Altos,CA,94024,2675000,3,2.5,1669.0,12196.8,37.335353999999995,-122.06881499999999
237,1034 Golden Way,Los Altos,CA,94024,2999888,3,2.0,1837.0,10890.0,37.364439000000004,-122.09123899999999
238,816 S Springer Rd,Los Altos,CA,94024,2975000,5,3.0,2381.0,10018.8,37.368442,-122.09640800000001
239,930 Hayman Pl,Los Altos,CA,94024,3350000,4,3.5,2615.0,11761.2,37.366299,-122.083032
240,1152 Miguel Ave,Los Altos,CA,94024,2450000,3,2.0,1546.0,9518.0,37.34968,-122.082051
241,11768 Maria Ln,Los Altos Hills,CA,94024,11998000,8,8.5,9500.0,98445.6,37.353725,-122.111121
242,1440 Highland View Ct,Los Altos,CA,94024,3398000,4,3.0,2818.0,13939.2,37.345906,-122.081791
243,300 Cuesta Dr,Los Altos,CA,94024,3800000,5,4.5,3395.0,13068.0,37.373804,-122.107421
244,1346 Arbor Ave,Los Altos,CA,94024,6495000,6,6.5,4936.0,17859.6,37.356478,-122.09561699999999
245,1235 Nightingale Ct,Los Altos,CA,94024,4288000,5,3.5,3567.0,9574.0,37.350118,-122.07968600000001
246,1653 Christina Dr,Los Altos,CA,94024,2865000,4,2.0,2076.0,10454.4,37.350831,-122.064171
247,1074 Riverside Dr,Los Altos,CA,94024,5600000,4,2.0,2639.0,29620.8,37.363890000000005,-122.098424
248,1505 Fairway Dr,Los Altos,CA,94024,7998000,5,5.5,7200.0,26571.6,37.355542,-122.10060700000001
249,1320 Harwalt Dr,Los Altos,CA,94024,2698000,4,2.5,2233.0,10890.0,37.358684000000004,-122.065514
250,606 Paco Dr,Los Altos,CA,94024,2998000,3,2.0,1185.0,15246.0,37.376129999999996,-122.099897
251,690 Loyola Dr,Los Altos Hills,CA,94024,13950000,7,5.5,7700.0,164656.8,37.346061,-122.09583500000001
252,10718 Mora Dr,Los Altos Hills,CA,94024,19999888,6,8.5,9677.0,118047.6,37.338635,-122.09718899999999
253,1161 Payne Dr,Los Altos,CA,94024,3988000,5,3.0,4223.0,13068.0,37.35604,-122.08225900000001
254,11768 Maria Ln,Los Altos Hills,CA,94024,11998000,8,8.5,9500.0,98445.6,37.353725,-122.111121
255,11040 Eastbrook Ave,Los Altos,CA,94024,2998000,4,2.5,2310.0,43995.6,37.344882,-122.09773200000001
256,510 Sequoia Dr,Los Altos,CA,94024,2798000,2,1.5,1758.0,18730.8,37.339488,-122.074242
257,1150 Grant Rd,Los Altos,CA,94024,1998000,3,2.0,1329.0,11325.6,37.362679,-122.078107
258,353 Costello Dr,Los Altos,CA,94024,3698000,3,2.5,2536.0,29620.8,37.362645,-122.10710300000001
259,1416 Fallen Leaf Ln,Los Altos,CA,94024,2798000,4,2.0,1850.0,10890.0,37.356203,-122.064982
260,1347 Morton Ave,Los Altos,CA,94024,2758000,3,2.0,2018.0,10890.0,37.348457,-122.076273
261,1505 Fairway Dr,Los Altos,CA,94024,7998000,5,5.5,7200.0,26571.6,37.355542,-122.10060700000001
262,931 Matts Ct,Los Altos,CA,94024,2199988,3,2.5,2164.0,11761.2,37.366321,-122.11436699999999
263,1346 Arbor Ave,Los Altos,CA,94024,6495000,6,6.5,4936.0,17859.6,37.356478,-122.09561699999999
264,1564 Vineyard Dr,Los Altos,CA,94024,2595000,3,3.0,2049.0,10890.0,37.336186,-122.070679
265,1909 Farndon Ave,Los Altos,CA,94024,2599000,3,2.0,1578.0,9736.0,37.344417,-122.06678400000001
266,1495 Cedar Pl,Los Altos,CA,94024,2685000,4,2.0,2132.0,10890.0,37.335254,-122.071816
267,1060 Golden Way,Los Altos,CA,94024,2995000,3,2.0,2034.0,10890.0,37.364015,-122.09123899999999
268,23691 Camino Hermoso Dr,Los Altos Hills,CA,94024,5500000,3,1.5,2058.0,59241.6,37.344822,-122.11108
269,1686 Dalehurst Ave,Los Altos,CA,94024,2298000,3,2.0,1243.0,14374.8,37.347829,-122.071482
270,1849 Grant Park Ln,Los Altos,CA,94024,3488888,4,3.5,3260.0,11325.6,37.346136,-122.06956799999999
271,1034 Golden Way,Los Altos,CA,94024,2999888,3,2.0,1837.0,10890.0,37.364439000000004,-122.09123899999999
272,1653 Christina Dr,Los Altos,CA,94024,2865000,4,2.0,2076.0,10454.4,37.350831,-122.064171
273,1152 Miguel Ave,Los Altos,CA,94024,2450000,3,2.0,1546.0,9518.0,37.34968,-122.082051
274,1074 Riverside Dr,Los Altos,CA,94024,5600000,4,2.0,2639.0,29620.8,37.363890000000005,-122.098424
275,300 Cuesta Dr,Los Altos,CA,94024,3800000,5,4.5,3395.0,13068.0,37.373804,-122.107421
276,930 Hayman Pl,Los Altos,CA,94024,3350000,4,3.5,2615.0,11761.2,37.366299,-122.083032
277,1739 Joel Way,Los Altos,CA,94024,2598888,5,2.5,2490.0,11761.2,37.359404,-122.063753
278,2275 Deodara Dr,Los Altos,CA,94024,2675000,3,2.5,1669.0,12196.8,37.335353999999995,-122.06881499999999
279,1235 Nightingale Ct,Los Altos,CA,94024,4288000,5,3.5,3567.0,9574.0,37.350118,-122.07968600000001
280,816 S Springer Rd,Los Altos,CA,94024,2975000,5,3.0,2381.0,10018.8,37.368442,-122.09640800000001
281,10450 Creston Dr,Los Altos,CA,94024,2988000,4,2.5,3033.0,14810.4,37.329238000000004,-122.060093
282,1440 Highland View Ct,Los Altos,CA,94024,3398000,4,3.0,2818.0,13939.2,37.345906,-122.081791
283,127 Elliott Dr,Menlo Park,CA,94025,4498000,5,4.0,3078.0,9345.0,37.460695,-122.150098
284,556 Placitas Ave,Menlo Park,CA,94025,3695000,5,4.0,3650.0,10890.0,37.473579,-122.19525300000001
285,4 Palm Ct,Menlo Park,CA,94025,5775000,5,4.0,3207.0,10454.4,37.437836,-122.19353600000001
286,670 Magnolia St,Menlo Park,CA,94025,4850000,5,4.5,3035.0,10018.8,37.437714,-122.190285
287,304 Ivy Dr,Menlo Park,CA,94025,1199000,4,2.0,1437.0,5750.0,37.475555,-122.163528
288,524 9th Ave,Menlo Park,CA,94025,1725000,3,3.0,1610.0,5634.0,37.473679,-122.19881000000001
289,1131 Hobart St,Menlo Park,CA,94025,5998000,6,6.5,5430.0,10018.8,37.441688,-122.194176
290,1127 Madera Ave,Menlo Park,CA,94025,1350000,3,2.0,1540.0,5750.0,37.472069,-122.157715
291,1050 Louise St,Menlo Park,CA,94025,6988000,6,7.5,6412.0,16117.2,37.435904,-122.197096
292,614 10th Ave,Menlo Park,CA,94025,1295000,3,1.0,1100.0,5350.0,37.474852,-122.196973
293,1145 Almanor Ave,Menlo Park,CA,94025,1100000,3,2.0,1220.0,5290.0,37.474816,-122.162458
294,653 San Benito Ave,Menlo Park,CA,94025,1395000,3,2.0,1250.0,3959.0,37.474636,-122.19458799999998
295,2312 Loma Prieta Ln,Menlo Park,CA,94025,6488000,5,5.5,5526.0,13503.6,37.426249,-122.20403700000001
296,1110 Madera Ave,Menlo Park,CA,94025,998000,3,1.0,1040.0,6000.0,37.471376,-122.157408
297,1323 Sevier Ave,Menlo Park,CA,94025,998000,3,1.0,1130.0,5750.0,37.477233,-122.156122
298,1115 Trinity Dr,Menlo Park,CA,94025,5699000,4,3.5,4017.0,16552.8,37.427231,-122.21474199999999
299,2111 Manzanita Ave,Menlo Park,CA,94025,3800000,4,4.0,2710.0,6000.0,37.435103999999995,-122.209544
300,575 6th Ave,Menlo Park,CA,94025,1349000,3,1.0,1200.0,4544.0,37.475663,-122.20159699999999
301,765 Cotton St,Menlo Park,CA,94025,6488000,6,4.5,5088.0,10890.0,37.440176,-122.18958400000001
302,193 Willow Rd,Menlo Park,CA,94025,5388888,5,5.0,3931.0,13939.2,37.456703999999995,-122.16338200000001
303,315 Haight St,Menlo Park,CA,94025,1498000,2,1.0,1140.0,6500.0,37.467015,-122.15438700000001
304,1251 Valparaiso Ave,Menlo Park,CA,94025,5998000,5,3.5,4170.0,24829.2,37.446599,-122.194833
305,985 Siskiyou Dr,Menlo Park,CA,94025,3800000,3,2.5,2540.0,13939.2,37.422763,-122.212093
306,660 Vine St,Menlo Park,CA,94025,5725000,5,4.0,3121.0,10018.8,37.430989000000004,-122.194432
307,2316 Blueridge Ave,Menlo Park,CA,94025,3085000,3,2.5,2045.0,11325.6,37.425106,-122.202317
308,2044 Ashton Ave,Menlo Park,CA,94025,2698000,4,2.0,1925.0,6000.0,37.43377,-122.202707
309,30 Sharon Ct,Menlo Park,CA,94025,2950000,3,2.0,1620.0,11325.6,37.42868,-122.199345
310,401 Oak Ct,Menlo Park,CA,94025,3499000,4,3.0,2320.0,16117.2,37.458141,-122.148008
311,3018 Alameda De Las Pulgas,Menlo Park,CA,94025,1899999,3,2.0,1320.0,6192.0,37.436419,-122.211727
312,520 Barron St,Menlo Park,CA,94025,2439000,3,2.5,1580.0,2841.0,37.453897999999995,-122.174341
313,626 Partridge Ave Unit 2,Menlo Park,CA,94025,2495000,3,2.5,1883.0,4740.0,37.44875,-122.175843
314,151 Elliott Dr,Menlo Park,CA,94025,2388000,3,2.0,1562.0,6200.0,37.460351,-122.150245
315,204 Chester St,Menlo Park,CA,94025,1688000,2,1.0,1090.0,6216.0,37.46552,-122.15253999999999
316,2071 Valparaiso Ave,Menlo Park,CA,94025,1995000,3,2.5,2000.0,6000.0,37.434284000000005,-122.20525500000001
317,501 Laurel Ave,Menlo Park,CA,94025,3995000,4,3.0,2650.0,6625.0,37.460677000000004,-122.15503500000001
318,655 Gilbert Ave,Menlo Park,CA,94025,3988888,4,3.5,2776.0,8925.0,37.460212,-122.16183000000001
319,719 17th Ave,Menlo Park,CA,94025,2100000,4,3.0,2060.0,5084.0,37.474304,-122.19053100000001
320,651 18th Ave,Menlo Park,CA,94025,1498000,3,2.0,1440.0,5350.0,37.472913,-122.19041100000001
321,161 Willow Rd,Menlo Park,CA,94025,3449000,5,4.0,2766.0,8660.0,37.456006,-122.163564
323,1040 Ringwood Ave,Menlo Park,CA,94025,1988000,4,2.0,1480.0,6000.0,37.472928,-122.166325
324,1969 Palo Alto Way,Menlo Park,CA,94025,2698000,3,1.0,1430.0,6550.0,37.428478000000005,-122.19233899999999
325,440 9th Ave,Menlo Park,CA,94025,2150000,3,2.0,1730.0,9300.0,37.471271,-122.19991499999999
326,671 Live Oak Ave,Menlo Park,CA,94025,2298888,3,1.0,980.0,5650.0,37.451295,-122.181096
327,190 Almendral Ave,Atherton,CA,94027,22500000,6,7.5,11160.0,43560.0,37.453006,-122.214224
328,1 Heritage Ct,Atherton,CA,94027,4799888,5,5.5,4293.0,21344.4,37.469346,-122.19248400000001
329,302 Stevick Dr,Atherton,CA,94027,5500000,3,2.5,2320.0,43560.0,37.441265,-122.220404
330,87 Patricia Dr,Atherton,CA,94027,19500000,5,6.5,6535.0,50094.0,37.461174,-122.21286599999999
331,490 Walsh Rd,Atherton,CA,94027,7999000,5,4.5,4478.0,87120.0,37.425447999999996,-122.226056
332,1 Holbrook Ln,Atherton,CA,94027,5500000,6,5.0,4235.0,13068.0,37.46971,-122.193321
333,69 Tuscaloosa Ave,Atherton,CA,94027,26000000,5,8.5,11155.0,74487.6,37.458682,-122.204894
335,118 Selby Ln,Atherton,CA,94027,14999000,6,7.5,15600.0,53578.8,37.461718,-122.218245
336,226 Park Ln,Atherton,CA,94027,16988000,3,3.5,3520.0,62290.8,37.446345,-122.20245800000001
337,49 Fairview Ave,Atherton,CA,94027,16488000,6,8.5,11250.0,45738.0,37.4416,-122.21261899999999
338,236 Camino Al Lago,Atherton,CA,94027,15995000,6,5.0,4910.0,87120.0,37.442656,-122.206575
339,96 Heather Dr,Atherton,CA,94027,13880000,8,8.5,14704.0,42688.8,37.467612,-122.18789699999999
340,74 Atherton Ave,Atherton,CA,94027,12900000,4,5.5,6296.0,65340.0,37.45769,-122.204039
341,1175 Osborn Ave,Atherton,CA,94027,2149888,3,3.0,1705.0,7819.0,37.454262,-122.218999
342,95 Tallwood Ct,Atherton,CA,94027,6588000,3,3.5,2660.0,76665.6,37.433147999999996,-122.214499
343,48 Watkins Ave,Atherton,CA,94027,2488000,3,2.0,1842.0,6551.0,37.460703,-122.19458200000001
344,10 DE Bell Dr,Atherton,CA,94027,5500000,5,5.5,3760.0,56192.4,37.462651,-122.17829499999999
345,3 Irving Ave,Atherton,CA,94027,4595000,4,3.0,3210.0,40075.2,37.468555,-122.190937
346,59 Almendral Ave,Atherton,CA,94027,8500000,5,4.0,3790.0,46173.6,37.460408,-122.20648899999999
347,46 Lilac Dr,Atherton,CA,94027,6695000,3,2.0,2680.0,41817.6,37.474365999999996,-122.181676
348,2 Fredrick Ave,Atherton,CA,94027,7295000,5,3.5,4010.0,38768.4,37.472004999999996,-122.17206000000002
349,1 Queens Ct,Atherton,CA,94027,8100000,4,4.5,3600.0,44431.2,37.445368,-122.21763899999999
350,3 Shearer Dr,Atherton,CA,94027,12280000,6,8.5,8600.0,28749.6,37.466155,-122.212112
351,24 Stockbridge Ave,Atherton,CA,94027,11888000,6,6.5,8299.0,28749.6,37.464752000000004,-122.209185
352,333 Fletcher Dr,Atherton,CA,94027,9380000,4,5.5,6531.0,43995.6,37.439668,-122.223226
353,98 Monte Vista Ave,Atherton,CA,94027,8250000,3,2.0,1815.0,49222.8,37.442484,-122.207656
354,76 Fairview Ave,Atherton,CA,94027,11380000,5,4.5,7109.0,39639.6,37.439962,-122.21215
355,129 Karen Way,Atherton,CA,94027,6925000,3,3.5,4799.0,52272.0,37.441857,-122.219771
356,385 Fletcher Dr,Atherton,CA,94027,14900000,6,7.5,9742.0,38768.4,37.438475,-122.224324
357,1 Odell Pl,Atherton,CA,94027,7895000,5,5.5,5885.0,33976.8,37.461742,-122.20035
358,226 Park Ln,Atherton,CA,94027,16988000,3,3.5,3520.0,62290.8,37.446345,-122.20245800000001
359,302 Stevick Dr,Atherton,CA,94027,5500000,3,2.5,2320.0,43560.0,37.441265,-122.220404
360,190 Almendral Ave,Atherton,CA,94027,22500000,6,7.5,11160.0,43560.0,37.453006,-122.214224
361,236 Camino Al Lago,Atherton,CA,94027,15995000,6,5.0,4910.0,87120.0,37.442656,-122.206575
362,1 Heritage Ct,Atherton,CA,94027,4799888,5,5.5,4293.0,21344.4,37.469346,-122.19248400000001
363,98 Monte Vista Ave,Atherton,CA,94027,8250000,3,2.0,1815.0,49222.8,37.442484,-122.207656
364,59 Almendral Ave,Atherton,CA,94027,8500000,5,4.0,3790.0,46173.6,37.460408,-122.20648899999999
365,490 Walsh Rd,Atherton,CA,94027,7999000,5,4.5,4478.0,87120.0,37.425447999999996,-122.226056
366,10 DE Bell Dr,Atherton,CA,94027,5500000,5,5.5,3760.0,56192.4,37.462651,-122.17829499999999
367,30 Southgate St,Atherton,CA,94027,3050000,3,2.0,2018.0,6750.0,37.461696,-122.20636599999999
368,1 Holbrook Ln,Atherton,CA,94027,5500000,6,5.0,4235.0,13068.0,37.46971,-122.193321
369,74 Atherton Ave,Atherton,CA,94027,12900000,4,5.5,6296.0,65340.0,37.45769,-122.204039
370,87 Patricia Dr,Atherton,CA,94027,19500000,5,6.5,6535.0,50094.0,37.461174,-122.21286599999999
371,333 Fletcher Dr,Atherton,CA,94027,9380000,4,5.5,6531.0,43995.6,37.439668,-122.223226
372,2 Fredrick Ave,Atherton,CA,94027,7295000,5,3.5,4010.0,38768.4,37.472004999999996,-122.17206000000002
373,76 Fairview Ave,Atherton,CA,94027,11380000,5,4.5,7109.0,39639.6,37.439962,-122.21215
374,54 Reservoir Rd,Atherton,CA,94027,5495000,4,3.0,2785.0,50529.6,37.430296000000006,-122.221897
375,3 Shearer Dr,Atherton,CA,94027,11800000,6,8.5,8600.0,28749.6,37.466155,-122.212112
376,1175 Osborn Ave,Atherton,CA,94027,2149888,3,3.0,1705.0,7820.0,37.454262,-122.218999
377,46 Lilac Dr,Atherton,CA,94027,6695000,3,2.0,2680.0,41817.6,37.474365999999996,-122.181676
379,129 Karen Way,Atherton,CA,94027,6925000,3,3.5,4799.0,52272.0,37.441857,-122.219771
380,69 Tuscaloosa Ave,Atherton,CA,94027,26000000,5,8.5,11155.0,74487.6,37.458682,-122.204894
381,14 Flood Cir,Atherton,CA,94027,8199000,5,5.5,5110.0,36154.8,37.467759,-122.181401
382,49 Fairview Ave,Atherton,CA,94027,16488000,6,8.5,11250.0,45738.0,37.4416,-122.21261899999999
383,118 Selby Ln,Atherton,CA,94027,14999000,6,7.5,15600.0,53578.8,37.461718,-122.218245
384,385 Fletcher Dr,Atherton,CA,94027,14900000,6,7.5,9742.0,38768.4,37.438475,-122.224324
385,3 Irving Ave,Atherton,CA,94027,4595000,4,3.0,3210.0,40075.2,37.468555,-122.190937
386,96 Heather Dr,Atherton,CA,94027,13880000,8,8.5,14704.0,42688.8,37.467612,-122.18789699999999
387,95 Tallwood Ct,Atherton,CA,94027,6588000,3,3.5,2660.0,76665.6,37.433147999999996,-122.214499
388,24 Stockbridge Ave,Atherton,CA,94027,11888000,6,6.5,8299.0,28749.6,37.464752000000004,-122.209185
389,370 Golden Oak Dr,Portola Valley,CA,94028,3599000,3,2.0,2270.0,46173.6,37.385861,-122.19971000000001
390,1061 Los Trancos Rd,Portola Valley,CA,94028,899000,2,1.0,780.0,14810.4,37.349838,-122.19865800000001
391,880 Westridge Dr,Portola Valley,CA,94028,13750000,5,5.0,6610.0,425581.2,37.394975,-122.21552
392,80 Golden Oak Dr,Portola Valley,CA,94028,8880000,5,5.5,4368.0,64904.4,37.378606,-122.2012
393,210 Escobar Rd,Portola Valley,CA,94028,3375000,3,2.5,2785.0,113256.0,37.398998999999996,-122.208633
394,4 Russell Ave,Portola Valley,CA,94028,1499500,3,1.0,1290.0,7802.0,37.384215999999995,-122.237333
395,1019 Los Trancos Rd,Portola Valley,CA,94028,1595000,3,1.5,1180.0,9361.0,37.350173999999996,-122.197759
396,116 Russell Ave,Portola Valley,CA,94028,1895000,3,2.0,1821.0,5998.0,37.384055,-122.240219
397,190 Vista Verde Way,Portola Valley,CA,94028,3850000,5,6.0,4400.0,43995.6,37.342457,-122.195174
398,260 S Castanya Way,Portola Valley,CA,94028,2525000,3,2.0,1652.0,8799.0,37.397758,-122.19507800000001
399,228 Canyon Dr,Portola Valley,CA,94028,1999000,3,2.0,1410.0,10018.8,37.371186,-122.212051
400,167 Ramoso Rd,Portola Valley,CA,94028,5495000,6,5.0,3780.0,110642.4,37.393621,-122.224673
401,131 Gabarda Way,Portola Valley,CA,94028,2495000,3,2.0,1740.0,8198.0,37.399128999999995,-122.19629199999999
402,805 LA Mesa Dr,Portola Valley,CA,94028,2995000,3,2.5,2490.0,13503.6,37.396654,-122.204324
403,23 Valley Oak St,Portola Valley,CA,94028,3995000,4,3.5,4250.0,27442.8,37.367652,-122.20246100000001
404,9 Valley Oak St,Portola Valley,CA,94028,3295000,5,3.0,3120.0,20037.6,37.362695,-122.206406
405,180 Cherokee Way,Portola Valley,CA,94028,3995000,3,5.0,3490.0,48787.2,37.380423,-122.21160900000001
406,100 Alamos Rd,Portola Valley,CA,94028,4900000,3,2.0,3600.0,108900.0,37.391976,-122.195728
407,2 Portola Green Cir,Portola Valley,CA,94028,2795000,4,2.0,2330.0,10018.8,37.373284000000005,-122.213472
408,1236 Los Trancos Rd,Portola Valley,CA,94028,4495000,5,3.5,3394.0,14810.4,37.346393,-122.19833100000001
409,1195 Westridge Dr,Portola Valley,CA,94028,4500000,3,2.5,2350.0,88426.8,37.385783,-122.221433
410,1061 Los Trancos Rd,Portola Valley,CA,94028,899000,2,1.0,780.0,14810.4,37.349838,-122.19865800000001
411,260 S Castanya Way,Portola Valley,CA,94028,2525000,3,2.0,1652.0,8800.0,37.397758,-122.19507800000001
412,370 Golden Oak Dr,Portola Valley,CA,94028,3599000,3,2.0,2270.0,46173.6,37.385861,-122.19971000000001
413,4 Russell Ave,Portola Valley,CA,94028,1499500,3,1.0,1290.0,7800.0,37.384215999999995,-122.237333
414,210 Escobar Rd,Portola Valley,CA,94028,3375000,3,2.5,2785.0,113256.0,37.398998999999996,-122.208633
415,23 Valley Oak St,Portola Valley,CA,94028,3995000,4,3.5,4250.0,27442.8,37.367652,-122.20246100000001
416,9 Valley Oak St,Portola Valley,CA,94028,3195000,5,3.0,3120.0,20037.6,37.362695,-122.206406
417,1019 Los Trancos Rd,Portola Valley,CA,94028,1595000,3,1.5,1180.0,9360.0,37.350173999999996,-122.197759
418,167 Ramoso Rd,Portola Valley,CA,94028,5495000,6,5.0,3780.0,110642.4,37.393621,-122.224673
419,131 Gabarda Way,Portola Valley,CA,94028,2450000,3,2.0,1740.0,8200.0,37.399128999999995,-122.19629199999999
420,180 Cherokee Way,Portola Valley,CA,94028,3790000,3,5.0,3490.0,48787.2,37.380423,-122.21160900000001
421,880 Westridge Dr,Portola Valley,CA,94028,13750000,5,5.0,6610.0,425581.2,37.394975,-122.21552
422,228 Canyon Dr,Portola Valley,CA,94028,1999000,3,2.0,1410.0,10018.8,37.371186,-122.212051
423,100 Alamos Rd,Portola Valley,CA,94028,4900000,3,2.0,3600.0,108900.0,37.391976,-122.195728
424,116 Russell Ave,Portola Valley,CA,94028,1895000,3,2.0,1821.0,6000.0,37.384055,-122.240219
425,2 Portola Green Cir,Portola Valley,CA,94028,2795000,4,2.0,2330.0,10018.8,37.373284000000005,-122.213472
426,139 Crescent Ave,Portola Valley,CA,94028,2680000,4,3.5,3445.0,20908.8,37.372007,-122.213159
427,80 Golden Oak Dr,Portola Valley,CA,94028,8480000,5,5.5,4368.0,64904.4,37.378606,-122.2012
428,412 Juanita Ave,Millbrae,CA,94030,1895000,3,2.0,1250.0,12196.8,37.610712,-122.41056599999999
429,14 Cypress Ct,Millbrae,CA,94030,1498000,3,2.0,1710.0,5850.0,37.606228,-122.40316499999999
430,15 Evergreen Ct,Millbrae,CA,94030,1688000,3,2.0,1970.0,6020.0,37.599643,-122.41405400000001
431,870 Robin Ln,Millbrae,CA,94030,1598000,4,2.0,1890.0,5131.0,37.606071,-122.421031
432,1330 Millbrae Ave,Millbrae,CA,94030,2448000,3,2.5,2910.0,20037.6,37.588214,-122.407407
433,835 Murchison Dr,Millbrae,CA,94030,2799000,4,3.5,3100.0,8738.0,37.591311,-122.392591
434,1160 Millbrae Ave,Millbrae,CA,94030,1988888,3,2.5,2510.0,8999.0,37.592607,-122.401928
435,526 Anita Ln,Millbrae,CA,94030,2100000,5,5.5,2030.0,5667.0,37.599511,-122.406852
436,33 Estates Dr,Millbrae,CA,94030,2599000,4,3.0,2418.0,7928.0,37.595231,-122.415071
437,890 Crestview Dr,Millbrae,CA,94030,1768000,4,2.0,1851.0,8712.0,37.596125,-122.41638300000001
438,1132 Millbrae Ave,Millbrae,CA,94030,2798000,5,3.5,3900.0,7405.0,37.593066,-122.400319
439,841 Clearfield Dr,Millbrae,CA,94030,2799000,4,4.0,3157.0,7405.0,37.596346999999994,-122.409927
440,120 Del Centro St,Millbrae,CA,94030,1888888,4,3.0,2510.0,5663.0,37.590664000000004,-122.410802
441,881 Morningside Dr,Millbrae,CA,94030,1848888,4,3.0,2710.0,5998.0,37.598222,-122.410147
442,1116 Elmwood Dr,Millbrae,CA,94030,1728000,4,3.0,1975.0,5323.0,37.604275,-122.41748500000001
443,44 Camino Alto,Millbrae,CA,94030,1630000,3,2.0,1970.0,5998.0,37.597055,-122.403827
444,610 Hillcrest Blvd,Millbrae,CA,94030,1699000,2,2.0,2050.0,5663.0,37.597266999999995,-122.39702700000001
445,95 Colorados Dr,Millbrae,CA,94030,1698000,3,2.5,1840.0,7148.0,37.593637,-122.408674
446,898 Hillcrest Blvd,Millbrae,CA,94030,2150000,4,2.5,2267.0,5153.0,37.594838,-122.399681
447,721 Taylor Blvd,Millbrae,CA,94030,1988000,3,2.0,2173.0,5685.0,37.597479,-122.39866200000002
448,1179 Ridgewood Dr,Millbrae,CA,94030,1588000,3,2.0,1500.0,5641.0,37.606190000000005,-122.41793100000001
450,496 6th St,Montara,CA,94037,3100000,4,2.5,9763.0,40075.2,37.540374,-122.51015
451,771 Rivera Rd,Montara,CA,94037,10000000,3,2.5,2600.0,10715760.0,37.545572,-122.493579
452,659 George St,Montara,CA,94037,1100000,3,2.0,1952.0,6251.0,37.541083,-122.505788
453,586 6th St,Montara,CA,94037,1345000,4,2.5,2220.0,5001.0,37.539666,-122.5079
454,741 Harte St,Montara,CA,94037,1165000,3,2.0,1800.0,6251.0,37.539128000000005,-122.50621100000001
455,320 10th St,Montara,CA,94037,1175000,3,2.0,1580.0,8999.0,37.539169,-122.514878
456,202 11th St,Montara,CA,94037,1978000,4,3.0,3087.0,8999.0,37.539011,-122.51638700000001
458,496 6th St,Montara,CA,94037,3100000,4,2.5,9763.0,40075.2,37.540374,-122.51015
459,771 Rivera Rd,Montara,CA,94037,10000000,3,2.5,2600.0,10715760.0,37.545572,-122.493579
460,659 George St,Montara,CA,94037,1100000,3,2.0,1952.0,6251.0,37.541083,-122.505788
461,586 6th St,Montara,CA,94037,1345000,4,2.5,2220.0,5001.0,37.539666,-122.5079
462,741 Harte St,Montara,CA,94037,1165000,3,2.0,1800.0,6251.0,37.539128000000005,-122.50621100000001
463,320 10th St,Montara,CA,94037,1175000,3,2.0,1580.0,8999.0,37.539169,-122.514878
464,202 11th St,Montara,CA,94037,1978000,4,3.0,3087.0,8999.0,37.539011,-122.51638700000001
465,2000 Vallemar St,Moss Beach,CA,94038,1995000,2,2.0,720.0,3498.0,37.533412,-122.51816699999999
466,683 Buena Vista St,Moss Beach,CA,94038,1098000,3,2.0,1580.0,8751.0,37.531892,-122.512248
467,675 Lancaster Blvd,Moss Beach,CA,94038,975000,4,2.0,1680.0,5998.0,37.528314,-122.50907099999999
468,111 San Lucas Ave,Moss Beach,CA,94038,1499000,4,3.0,2310.0,5001.0,37.515901,-122.51146999999999
469,723 Sierra St,Moss Beach,CA,94038,1375000,4,3.0,2853.0,5001.0,37.530925,-122.512249
470,198 Arbor Ln,Moss Beach,CA,94038,2999000,2,2.0,2400.0,13939.2,37.526796000000004,-122.516501
471,827 Stetson St,Moss Beach,CA,94038,1288000,3,2.0,2150.0,5001.0,37.528919,-122.511592
472,649 Lancaster Blvd,Moss Beach,CA,94038,1199000,3,2.5,1650.0,5001.0,37.528073,-122.509523
473,970 Etheldore St,Moss Beach,CA,94038,1050000,3,2.5,1520.0,6974.0,37.525964,-122.50979099999999
474,801 Kelmore St,Moss Beach,CA,94038,1075000,4,3.0,1980.0,7200.0,37.529773,-122.51163500000001
475,101 Niagra Ave,Moss Beach,CA,94038,4190000,3,3.5,3506.0,8176.0,37.53291,-122.51833
476,615 Kelmore St,Moss Beach,CA,94038,1199000,4,2.5,2100.0,3698.0,37.531090999999996,-122.514105
477,1037 Pearl Ave,Moss Beach,CA,94038,1165000,3,2.0,1960.0,8499.0,37.524629,-122.50902099999999
478,990 Buena Vista St,Moss Beach,CA,94038,1300000,2,2.0,1395.0,115869.6,37.529459,-122.50802900000001
479,514 Buena Vista St,Moss Beach,CA,94038,1200000,3,3.0,1945.0,5001.0,37.532565000000005,-122.514696
480,223 Vermont Ave,Moss Beach,CA,94038,1198000,4,3.0,1706.0,5998.0,37.523691,-122.51423500000001
481,551 Lancaster Blvd,Moss Beach,CA,94038,1199000,5,3.0,1990.0,5001.0,37.526803,-122.51111100000001
482,1325 Marilyn Pl,Mountain View,CA,94040,2988888,4,3.0,1824.0,12632.4,37.380563,-122.09459
483,835 Runningwood Cir,Mountain View,CA,94040,1898000,3,2.0,1801.0,5985.0,37.370538,-122.062891
484,1306 Lubich Dr,Mountain View,CA,94040,2550000,3,2.5,1722.0,8803.0,37.363427,-122.064278
485,479 Carmelita Dr,Mountain View,CA,94040,4388000,5,5.5,3899.0,10890.0,37.374894,-122.072451
486,142 College Ave,Mountain View,CA,94040,1899000,4,2.0,1519.0,5057.0,37.402939,-122.100122
487,1242 Kern Ct,Mountain View,CA,94040,2799000,5,3.0,2817.0,10454.4,37.365295,-122.06560900000001
488,1355 Ernestine Ln,Mountain View,CA,94040,1988000,3,2.0,1218.0,5070.0,37.386068,-122.091392
489,1135 Blackfield Way,Mountain View,CA,94040,2999888,5,3.5,2595.0,6042.0,37.389697999999996,-122.099176
490,13134 Franklin Ave,Mountain View,CA,94040,1800000,3,1.0,1182.0,10454.4,37.368611,-122.068036
491,1175 Solana Dr,Mountain View,CA,94040,2250000,3,2.0,1322.0,6599.0,37.389457,-122.10333
492,100 Sleeper Ave,Mountain View,CA,94040,2890000,4,2.5,3047.0,9805.0,37.371758,-122.077524
493,693 Lola Ln,Mountain View,CA,94040,2399000,3,2.0,1680.0,8224.0,37.375339000000004,-122.082874
494,2110 California St,Mountain View,CA,94040,1798000,4,2.5,1790.0,2814.0,37.399390000000004,-122.10035400000001
495,1349 Isabelle Ave,Mountain View,CA,94040,2698000,4,2.5,1942.0,10454.4,37.378403999999996,-122.08883200000001
496,1501 Lloyd Way,Mountain View,CA,94040,2475000,3,1.5,1364.0,5162.0,37.386734999999994,-122.093471
497,1378 California St,Mountain View,CA,94041,6000000,4,2.0,2425.0,8499.0,37.394046,-122.08683400000001
498,394 Mariposa Ave,Mountain View,CA,94041,3788000,7,5.5,3561.0,7701.0,37.395381,-122.08955900000001
499,1357 Villa St,Mountain View,CA,94041,1295000,2,1.0,960.0,3598.0,37.396018,-122.08529899999999
500,1242 Snow St,Mountain View,CA,94041,1499000,2,2.0,1112.0,3750.0,37.389590000000005,-122.08764599999999
501,416 Palo Alto Ave,Mountain View,CA,94041,1900000,2,1.0,1104.0,5763.0,37.393768,-122.08759099999999
502,1960 San Ramon Ave,Mountain View,CA,94043,1470000,3,2.5,1196.0,2766.0,37.410039000000005,-122.090173
503,422 Whisman Ct,Mountain View,CA,94043,1650000,3,2.5,1584.0,2905.0,37.400334,-122.059403
504,910 San Marcos Cir,Mountain View,CA,94043,1929000,4,2.0,1576.0,5998.0,37.406874,-122.08503600000002
505,317 Serra San Bruno,Mountain View,CA,94043,1698000,3,2.5,1715.0,4186.0,37.407225,-122.09472
506,1601 Morgan St,Mountain View,CA,94043,1695000,3,2.0,1234.0,5929.0,37.411467,-122.081323
507,760 Emily Dr,Mountain View,CA,94043,1399000,3,1.0,816.0,4700.0,37.404475,-122.06651399999998
508,139 Hamilton Ave,Mountain View,CA,94043,1899900,3,2.0,1280.0,5001.0,37.405613,-122.10133300000001
509,306 Nita Ave,Mountain View,CA,94043,1750000,3,2.0,1140.0,5789.0,37.410246,-122.104781
510,1917 Colony St,Mountain View,CA,94043,2650000,2,1.0,1064.0,11325.6,37.415257000000004,-122.08736
512,395 Winwood Ave,Pacifica,CA,94044,1298000,3,2.0,1980.0,6181.0,37.653931,-122.48639299999999
513,37 Alviso Ct,Pacifica,CA,94044,1200000,3,3.0,1750.0,8712.0,37.587573,-122.48921999999999
514,417 Coral Ridge Dr,Pacifica,CA,94044,1188000,4,3.5,3058.0,3899.0,37.657291,-122.48683500000001
515,155 Gordon Way,Pacifica,CA,94044,799000,3,2.5,2080.0,5062.0,37.655578999999996,-122.488165
516,1083 Park Pacifica Ave,Pacifica,CA,94044,1099000,3,3.0,1492.0,6151.0,37.586549,-122.473827
517,468 Donaldson Ave,Pacifica,CA,94044,920000,2,2.0,1670.0,5998.0,37.608733,-122.49408899999999
518,106 Calaveras Ave,Pacifica,CA,94044,1199000,4,3.5,1990.0,5624.0,37.611985,-122.47343899999998
519,812 Burns Ct,Pacifica,CA,94044,948888,3,2.0,1280.0,5663.0,37.619309,-122.48343100000001
520,348 Heathcliff Dr,Pacifica,CA,94044,1088000,3,3.5,2430.0,5001.0,37.651037,-122.475623
521,211 Modoc Pl,Pacifica,CA,94044,975000,2,2.0,1130.0,9226.0,37.610405,-122.47310700000001
522,272 Gateway Dr,Pacifica,CA,94044,998000,4,2.0,1490.0,3899.0,37.662376,-122.47967
523,1275 Escalero Ave,Pacifica,CA,94044,1095000,4,3.0,2092.0,5306.0,37.592045,-122.49577099999999
524,740 Serena Dr,Pacifica,CA,94044,995000,5,3.0,2050.0,8359.0,37.594985,-122.49712199999999
525,423 Johnson Ave,Pacifica,CA,94044,899000,3,1.0,980.0,5523.0,37.649862,-122.488275
526,1116 Glacier Ave,Pacifica,CA,94044,1098000,3,3.0,1540.0,5998.0,37.591614,-122.46190800000001
527,1267 Escalero Ave,Pacifica,CA,94044,897000,3,1.0,1040.0,5001.0,37.591995000000004,-122.49561000000001
528,373 Lynbrook Dr,Pacifica,CA,94044,1028000,4,2.5,1610.0,4003.0,37.657063,-122.476923
529,339 Inverness Dr,Pacifica,CA,94044,1250000,5,3.0,2910.0,3999.0,37.653277,-122.47871799999999
530,1047 Valencia Way,Pacifica,CA,94044,1298000,4,2.5,1950.0,1950.0,37.594843,-122.48819099999999
531,122 Berendos Ave,Pacifica,CA,94044,1545000,3,2.0,1830.0,7850.0,37.611872,-122.474705
532,1103 Glacier Ave,Pacifica,CA,94044,995000,3,2.0,1240.0,6299.0,37.591152,-122.46278500000001
533,812 Standish Rd,Pacifica,CA,94044,995950,3,2.0,1160.0,5300.0,37.589166,-122.49812800000001
534,1183 Crespi Dr,Pacifica,CA,94044,1197000,4,2.0,1530.0,9601.0,37.589667,-122.48624
535,22 Spruce Ct,Pacifica,CA,94044,1100000,4,2.0,1610.0,9300.0,37.59211,-122.481994
536,236 Catalina Ave,Pacifica,CA,94044,1050000,3,1.0,1060.0,4095.0,37.655884,-122.481654
537,1206 Oddstad Blvd,Pacifica,CA,94044,1443000,3,3.0,2300.0,6800.0,37.593302,-122.46314199999999
538,353 Farallon Ave,Pacifica,CA,94044,1350000,3,2.5,1981.0,6534.0,37.655402,-122.48461499999999
539,77 Montecito Ave,Pacifica,CA,94044,979000,1,1.5,1270.0,2252.0,37.632938,-122.49294599999999
540,309 Bancroft Way,Pacifica,CA,94044,1100000,3,2.0,1500.0,5000.0,37.652384999999995,-122.486375
541,227 Marvilla Cir,Pacifica,CA,94044,1599000,4,3.5,2365.0,5937.0,37.594184999999996,-122.497721
542,607 Hickey Blvd,Pacifica,CA,94044,988000,4,3.0,1200.0,3999.0,37.654810999999995,-122.47976100000001
544,9351 Cabrillo Hwy,Pescadero,CA,94060,18999999,13,7.5,12000.0,,37.204739000000004,-122.402111
545,531 Madrone Ave,Pescadero,CA,94060,688000,3,2.0,1050.0,27442.8,37.236,-122.323171
546,100 S Ranch Rd,Pescadero,CA,94060,1750000,2,2.0,1800.0,829818.0,37.236089,-122.33438500000001
547,501 Bean Hollow Rd,Pescadero,CA,94060,3350000,3,2.5,2800.0,446925.6,37.227627000000005,-122.406021
548,4931 Pescadero Creek Rd,Pescadero,CA,94060,2995000,3,2.5,2900.0,3360654.0,37.259367,-122.33898700000002
550,301 Ranch Rd W,Pescadero,CA,94060,6395000,4,4.5,5100.0,8102160.0,37.240266,-122.35256799999999
552,9351 Cabrillo Hwy,Pescadero,CA,94060,18999999,13,7.5,12000.0,,37.204739000000004,-122.402111
553,531 Madrone Ave,Pescadero,CA,94060,688000,3,2.0,1050.0,27442.8,37.236,-122.323171
554,100 S Ranch Rd,Pescadero,CA,94060,1750000,2,2.0,1800.0,829818.0,37.236089,-122.33438500000001
555,501 Bean Hollow Rd,Pescadero,CA,94060,3350000,3,2.5,2800.0,446925.6,37.227627000000005,-122.406021
556,4931 Pescadero Creek Rd,Pescadero,CA,94060,2995000,3,2.5,2900.0,3360654.0,37.259367,-122.33898700000002
558,301 Ranch Rd W,Pescadero,CA,94060,6395000,4,4.5,5100.0,8102160.0,37.240266,-122.35256799999999
559,1128 Cleveland St,Redwood City,CA,94061,1350000,3,2.0,1755.0,5245.0,37.475481,-122.22910300000001
560,212 Oak Ave,Redwood City,CA,94061,829000,3,1.0,1240.0,4373.0,37.476092,-122.225812
561,203 W Oakwood Blvd,Redwood City,CA,94061,1725000,3,3.0,2040.0,7902.0,37.463326,-122.239204
562,1226 Ebener St,Redwood City,CA,94061,1488000,3,3.0,1450.0,2178.0,37.472808,-122.228426
563,632-636 Myrtle St,Redwood City,CA,94061,1498000,2,2.0,1380.0,6251.0,37.474071,-122.238796
564,737 Ruby St,Redwood City,CA,94061,1998000,4,3.0,2000.0,5998.0,37.47014,-122.24154899999999
565,211 Alexander Ave,Redwood City,CA,94061,1088000,2,1.0,720.0,2548.0,37.457481,-122.224174
566,2207 Roosevelt Ave,Redwood City,CA,94061,1449000,3,2.0,1240.0,10018.8,37.465084000000004,-122.24135
567,3937 Lonesome Pine Rd,Redwood City,CA,94061,2833000,5,3.0,2636.0,22651.2,37.452379,-122.25711100000001
568,1921 Kentfield Ave,Redwood City,CA,94061,1998000,4,2.5,2710.0,4251.0,37.461683,-122.22235
569,236 Center St,Redwood City,CA,94061,1390000,3,3.5,1630.0,5998.0,37.471853,-122.220114
570,902 Pleasant Hill Rd,Redwood City,CA,94061,1675000,3,2.5,2130.0,7701.0,37.459139,-122.253804
571,2709 Carolina Ave,Redwood City,CA,94061,1449000,3,1.5,1330.0,6050.0,37.453045,-122.233094
572,409 Center St,Redwood City,CA,94061,1500000,4,3.5,2110.0,5759.0,37.470456,-122.220524
573,18 Alverno Ct,Redwood City,CA,94061,1698000,2,2.5,2800.0,4909.0,37.453272,-122.26217199999999
574,3098 Muller Ct,Redwood City,CA,94061,2698000,4,3.5,2380.0,10454.4,37.454778000000005,-122.241723
575,8 Sequoia Ct,Redwood City,CA,94061,2250000,4,2.5,2700.0,8542.0,37.450607,-122.223541
576,1634 Virginia Ave,Redwood City,CA,94061,1499000,3,2.0,1640.0,6599.0,37.460319,-122.231877
577,455 Sequoia Ave,Redwood City,CA,94061,1675000,3,2.0,1330.0,10890.0,37.451299,-122.222622
578,454 Buena Vista Ave,Redwood City,CA,94061,3398000,5,5.5,3190.0,7501.0,37.453196999999996,-122.221423
579,207 Yarborough Ln,Redwood City,CA,94061,2295000,4,3.0,2170.0,4456.0,37.463741999999996,-122.219655
580,1321 Oak Ave,Redwood City,CA,94061,1388000,3,2.5,1490.0,2339.0,37.469228,-122.233773
581,1147 McKinley St,Redwood City,CA,94061,1585000,3,2.0,1373.0,5700.0,37.470709,-122.23450600000001
582,1010 Eden Bower Ln,Redwood City,CA,94061,2298000,4,3.0,2410.0,5175.0,37.451114000000004,-122.259574
583,2179 Alameda De Las Pulgas,Redwood City,CA,94061,1575000,3,1.5,1240.0,14374.8,37.448159999999994,-122.23003600000001
584,2503 Carson St,Redwood City,CA,94061,1349000,3,2.0,1434.0,7453.0,37.460640999999995,-122.23953700000001
585,439 Santa Clara Ave,Redwood City,CA,94061,1750000,3,2.0,1710.0,6800.0,37.450193,-122.22408300000001
586,563 Santa Clara Ave,Redwood City,CA,94061,1798000,3,2.0,2010.0,10454.4,37.448839,-122.22193899999999
587,1833 Vera Ave,Redwood City,CA,94061,1895000,4,3.0,2790.0,8799.0,37.468990999999995,-122.241796
588,932 Pleasant Hill Rd,Redwood City,CA,94061,2498000,5,3.0,2480.0,7261.0,37.458420000000004,-122.252902
589,132 Rutherford Ave,Redwood City,CA,94061,1699000,3,2.0,1660.0,5101.0,37.457423,-122.226487
590,2024 Idaho Ct,Redwood City,CA,94061,1988000,4,2.5,1880.0,10018.8,37.453953999999996,-122.231816
591,69-71 Nueva Ave,Redwood City,CA,94061,1939000,7,4.0,3013.0,8250.0,37.46718,-122.22235800000001
592,1401 Roosevelt Ave,Redwood City,CA,94061,2198000,5,5.0,2903.0,8398.0,37.470155,-122.2364
593,1753 W Selby Ln,Redwood City,CA,94061,3198000,4,4.5,2650.0,5428.0,37.450747,-122.22405800000001
594,2502 McGarvey Ave,Redwood City,CA,94061,1998000,4,3.5,2257.0,6155.0,37.464704,-122.243908
595,234 Albion Ave,Woodside,CA,94062,28500000,8,8.5,10690.0,148104.0,37.430164000000005,-122.263123
596,445 Manzanita Way,Woodside,CA,94062,27900000,5,4.5,9345.0,196020.0,37.41823,-122.245896
597,1025 Harrison Ave,Redwood City,CA,94062,1698000,3,3.0,2300.0,3123.0,37.476859999999995,-122.23942
598,662 Oak Park Way,Redwood City,CA,94062,1998000,4,2.5,2112.0,8398.0,37.462513,-122.270375
599,714 Glenmere Way,Redwood City,CA,94062,2395000,4,3.5,3099.0,16988.4,37.45953,-122.271993
600,120 Hillside Dr,Woodside,CA,94062,2995000,3,3.0,2480.0,22215.6,37.438446,-122.253716
601,147 Summit Rd,Woodside,CA,94062,2495000,3,2.5,3350.0,130680.0,37.374024,-122.254244
602,212 Hillview Ave,Redwood City,CA,94062,1499000,2,1.0,1090.0,4961.0,37.476385,-122.24921499999999
603,606 Park Rd,Redwood City,CA,94062,1998000,4,2.5,2660.0,6599.0,37.46647,-122.267096
604,35 Palomar Oaks Ln,Redwood City,CA,94062,3588000,4,4.5,4330.0,21344.4,37.477374,-122.26244799999999
605,782 Glenmere Way,Redwood City,CA,94062,2350000,4,3.5,2930.0,6199.0,37.459972,-122.269034
606,20355 Skyline Blvd,Woodside,CA,94062,1998000,4,2.5,3120.0,69260.4,37.328202000000005,-122.207798
607,3560 Altamont Way,Redwood City,CA,94062,1695000,4,2.0,2203.0,7571.0,37.466386,-122.250795
608,17900 Skyline Blvd,Woodside,CA,94062,5995000,6,7.5,9800.0,1038470.4,37.373447,-122.261573
609,103 Hillside Dr,Woodside,CA,94062,2500000,3,3.0,1700.0,9500.0,37.437828,-122.253951
610,14 Inner Cir,Redwood City,CA,94062,1950000,3,2.0,1464.0,7000.0,37.476734,-122.24595
611,1203 Edgewood Rd,Redwood City,CA,94062,2700000,5,3.5,3500.0,13939.2,37.48258,-122.255742
612,150 Elwood St,Redwood City,CA,94062,1698000,2,2.0,1839.0,4809.0,37.484671999999996,-122.241157
613,643 W Glen Way,Woodside,CA,94062,3495000,4,3.5,4590.0,29185.2,37.453693,-122.275024
614,651 Handley Trl,Redwood City,CA,94062,1799000,3,2.5,2070.0,5885.0,37.46618,-122.26926999999999
615,103 Alameda De Las Pulgas,Redwood City,CA,94062,1895000,3,2.5,1570.0,7680.0,37.48281,-122.255196
616,3707 Hamilton Way,Redwood City,CA,94062,1788000,3,2.0,1560.0,7597.0,37.464015,-122.257558
617,980 Espinosa Rd,Woodside,CA,94062,2798000,3,3.0,2650.0,110206.8,37.387553999999994,-122.258852
618,2508 Eaton Ave,Redwood City,CA,94062,1699000,3,2.0,1590.0,4500.0,37.484285,-122.25766899999999
619,1707 Edgewood Rd,Redwood City,CA,94062,2199995,4,2.0,2000.0,19602.0,37.474569,-122.263824
620,37 Nevada St,Redwood City,CA,94062,2450000,4,3.0,1660.0,9100.0,37.48126,-122.24998400000001
621,110 Stadler Dr,Woodside,CA,94062,4198950,4,3.5,3972.0,43560.0,37.388558,-122.266593
622,1942 Kings Mountain Rd,Woodside,CA,94062,2995000,3,2.5,2040.0,157251.6,37.426712,-122.307103
623,387 Moore Rd,Woodside,CA,94062,12995000,4,5.0,7200.0,322779.6,37.432953999999995,-122.234696
624,2132 Stockbridge Ave,Woodside,CA,94062,2995000,3,2.0,2100.0,10890.0,37.443207,-122.226703
625,10707 LA Honda Rd,Woodside,CA,94062,2198900,3,2.5,3660.0,110642.4,37.343995,-122.27301999999999
626,4105 Woodside Rd,Woodside,CA,94062,13900000,4,3.5,4580.0,524898.0,37.412749,-122.25933
627,878 Hillcrest Dr,Redwood City,CA,94062,2098000,4,2.5,1910.0,17424.0,37.474304,-122.25666899999999
628,460 Summit Springs Rd,Woodside,CA,94062,3995000,3,2.5,2500.0,58806.0,37.423836,-122.276931
629,754 Loma Ct,Redwood City,CA,94062,3488000,3,3.0,3720.0,15681.6,37.482037,-122.272326
630,60 Buck Ct,Woodside,CA,94062,5998000,4,3.5,4290.0,49658.4,37.443163,-122.23314599999999
631,518 Patrol Rd,Woodside,CA,94062,3695000,4,2.5,2720.0,58370.4,37.425858000000005,-122.27838700000001
632,305 Jane Dr,Woodside,CA,94062,5595000,4,4.5,5930.0,126324.0,37.442963,-122.25596000000002
633,1975 Portola Rd,Woodside,CA,94062,3999888,4,2.5,3050.0,87120.0,37.403193,-122.24926200000002
634,214 Raymundo Dr,Woodside,CA,94062,4950000,5,5.0,3970.0,146361.6,37.447925,-122.27985600000001
635,738 Sylvan Way,Redwood City,CA,94062,3995000,4,4.5,4630.0,18295.2,37.464119000000004,-122.269065
636,205 Eleanor Dr,Woodside,CA,94062,6000000,5,4.0,4190.0,44866.8,37.439629,-122.236581
637,2041 Cordilleras Rd,Redwood City,CA,94062,3298000,4,3.5,3479.0,19602.0,37.474140000000006,-122.27301899999999
638,155 Hobart Heights Rd,Woodside,CA,94062,6088000,4,4.0,4127.0,142441.2,37.433187,-122.24679099999999
639,234 Albion Ave,Woodside,CA,94062,28500000,8,8.5,10690.0,148104.0,37.430164000000005,-122.263123
640,1025 Harrison Ave,Redwood City,CA,94062,1698000,3,3.0,2300.0,3123.0,37.476859999999995,-122.23942
641,445 Manzanita Way,Woodside,CA,94062,27900000,5,4.5,9345.0,196020.0,37.41823,-122.245896
642,147 Summit Rd,Woodside,CA,94062,2495000,3,2.5,3350.0,130680.0,37.374024,-122.254244
643,714 Glenmere Way,Redwood City,CA,94062,2395000,4,3.5,3099.0,16988.4,37.45953,-122.271993
644,662 Oak Park Way,Redwood City,CA,94062,1998000,4,2.5,2112.0,8398.0,37.462513,-122.270375
645,120 Hillside Dr,Woodside,CA,94062,2995000,3,3.0,2480.0,22215.6,37.438446,-122.253716
646,606 Park Rd,Redwood City,CA,94062,1998000,4,2.5,2660.0,6599.0,37.46647,-122.267096
647,782 Glenmere Way,Redwood City,CA,94062,2350000,4,3.5,2930.0,6199.0,37.459972,-122.269034
648,35 Palomar Oaks Ln,Redwood City,CA,94062,3588000,4,4.5,4330.0,21344.4,37.477374,-122.26244799999999
649,20355 Skyline Blvd,Woodside,CA,94062,1998000,4,2.5,3120.0,69260.4,37.328202000000005,-122.207798
650,103 Hillside Dr,Woodside,CA,94062,2500000,3,3.0,1700.0,9500.0,37.437828,-122.253951
651,3560 Altamont Way,Redwood City,CA,94062,1695000,4,2.0,2203.0,7571.0,37.466386,-122.250795
652,17900 Skyline Blvd,Woodside,CA,94062,5995000,6,7.5,9800.0,1038470.4,37.373447,-122.261573
653,83 El Vanada Rd,Redwood City,CA,94062,1388000,3,2.0,1580.0,10890.0,37.475941999999996,-122.276177
654,1203 Edgewood Rd,Redwood City,CA,94062,2700000,5,3.5,3500.0,13939.2,37.48258,-122.255742
655,3707 Hamilton Way,Redwood City,CA,94062,1788000,3,2.0,1560.0,7597.0,37.464015,-122.257558
656,2508 Eaton Ave,Redwood City,CA,94062,1699000,3,2.0,1590.0,4500.0,37.484285,-122.25766899999999
657,37 Nevada St,Redwood City,CA,94062,2450000,4,3.0,1660.0,9100.0,37.48126,-122.24998400000001
658,527 Sunset Way,Redwood City,CA,94062,2600000,4,2.0,2700.0,17424.0,37.460817,-122.272349
659,651 Handley Trl,Redwood City,CA,94062,1799000,3,2.5,2070.0,5885.0,37.46618,-122.26926999999999
660,150 Elwood St,Redwood City,CA,94062,1698000,2,2.0,1839.0,4809.0,37.484671999999996,-122.241157
661,103 Alameda De Las Pulgas,Redwood City,CA,94062,1895000,3,2.5,1570.0,7680.0,37.48281,-122.255196
662,980 Espinosa Rd,Woodside,CA,94062,2798000,3,3.0,2650.0,110206.8,37.387553999999994,-122.258852
663,1707 Edgewood Rd,Redwood City,CA,94062,2199995,4,2.0,2000.0,19602.0,37.474569,-122.263824
664,643 W Glen Way,Woodside,CA,94062,3495000,4,3.5,4590.0,29185.2,37.453693,-122.275024
665,387 Moore Rd,Woodside,CA,94062,12995000,4,5.0,7200.0,322779.6,37.432953999999995,-122.234696
666,2132 Stockbridge Ave,Woodside,CA,94062,2995000,3,2.0,2100.0,10890.0,37.443207,-122.226703
667,214 Raymundo Dr,Woodside,CA,94062,4950000,5,5.0,3970.0,146361.6,37.447925,-122.27985600000001
668,110 Stadler Dr,Woodside,CA,94062,4198950,4,3.5,3972.0,43560.0,37.388558,-122.266593
669,10707 LA Honda Rd,Woodside,CA,94062,2198900,3,2.5,3660.0,110642.4,37.343995,-122.27301999999999
670,1942 Kings Mountain Rd,Woodside,CA,94062,2995000,3,2.5,2040.0,157251.6,37.426712,-122.307103
671,878 Hillcrest Dr,Redwood City,CA,94062,2098000,4,2.5,1910.0,17424.0,37.474304,-122.25666899999999
672,4105 Woodside Rd,Woodside,CA,94062,13900000,4,3.5,4580.0,524898.0,37.412749,-122.25933
673,754 Loma Ct,Redwood City,CA,94062,3488000,3,3.0,3720.0,15681.6,37.482037,-122.272326
674,460 Summit Springs Rd,Woodside,CA,94062,3995000,3,2.5,2500.0,58806.0,37.423836,-122.276931
675,60 Buck Ct,Woodside,CA,94062,5998000,4,3.5,4290.0,49658.4,37.443163,-122.23314599999999
676,1975 Portola Rd,Woodside,CA,94062,3999888,4,2.5,3050.0,87120.0,37.403193,-122.24926200000002
677,305 Jane Dr,Woodside,CA,94062,5595000,4,4.5,5930.0,126324.0,37.442963,-122.25596000000002
678,518 Patrol Rd,Woodside,CA,94062,3695000,4,2.5,2720.0,58370.4,37.425858000000005,-122.27838700000001
679,738 Sylvan Way,Redwood City,CA,94062,3995000,4,4.5,4630.0,18295.2,37.464119000000004,-122.269065
680,2041 Cordilleras Rd,Redwood City,CA,94062,3298000,4,3.5,3479.0,19602.0,37.474140000000006,-122.27301899999999
681,155 Hobart Heights Rd,Woodside,CA,94062,6088000,4,4.0,4127.0,142441.2,37.433187,-122.24679099999999
682,205 Eleanor Dr,Woodside,CA,94062,6000000,5,4.0,4190.0,44866.8,37.439629,-122.236581
683,213 Dumbarton Ave,Redwood City,CA,94063,830000,3,1.0,900.0,2901.0,37.473561,-122.21112099999999
684,287 G St,Redwood City,CA,94063,1198950,3,1.0,1280.0,5850.0,37.496611,-122.24279399999999
685,609 Stanford Ave,Redwood City,CA,94063,1438000,4,2.5,1960.0,5001.0,37.479490000000006,-122.208927
686,3 Friendly Ct,Redwood City,CA,94063,1398000,4,2.0,1792.0,7000.0,37.483785,-122.18899099999999
687,3187 Bay Rd,Redwood City,CA,94063,1149000,2,1.0,940.0,6098.0,37.481912,-122.198672
688,3719 Hoover St,Redwood City,CA,94063,1150000,3,1.0,1250.0,6534.0,37.483934999999995,-122.185544
689,928 Stambaugh St,Redwood City,CA,94063,1050000,3,1.0,1060.0,4800.0,37.481922,-122.21901899999999
690,38 Broadway St,Redwood City,CA,94063,1198000,3,1.0,970.0,5998.0,37.484782,-122.197569
691,787 Seventh Ave,Redwood City,CA,94063,1095000,2,1.0,970.0,5759.0,37.478833,-122.19836399999998
692,246 Biarritz Ct,Redwood City,CA,94065,2248422,3,2.5,2019.0,6717.0,37.541481,-122.24434
693,648 Spar Dr,Redwood City,CA,94065,1625000,3,2.0,1600.0,7370.0,37.522890000000004,-122.24881200000002
694,459 Starboard Dr,Redwood City,CA,94065,1748000,3,2.5,1980.0,3990.0,37.530056,-122.254052
695,257 Monaco Dr,Redwood City,CA,94065,2499942,4,3.0,2545.0,6464.0,37.541702,-122.242827
696,563 Compass Cir,Redwood City,CA,94065,2748472,5,3.0,2880.0,6499.0,37.527758,-122.25083500000001
697,641 Spar Dr,Redwood City,CA,94065,2298000,6,5.0,2748.0,7000.0,37.523314,-122.24861299999999
698,1572 Jenevein Ave,San Bruno,CA,94066,1299000,4,3.0,2440.0,5001.0,37.619865000000004,-122.420093
699,3303 Aegean Way,San Bruno,CA,94066,1395000,5,3.5,2587.0,5184.0,37.632591999999995,-122.460801
700,3520 Longview Dr,San Bruno,CA,94066,1250000,5,3.0,2240.0,12196.8,37.629608000000005,-122.45993899999999
701,100 Stanislaus Ct,San Bruno,CA,94066,1298000,3,2.5,2040.0,5998.0,37.624483000000005,-122.455017
702,230 Emaron Dr,San Bruno,CA,94066,1149000,3,3.0,1560.0,5140.0,37.631102,-122.456725
703,229 Cypress Ave,San Bruno,CA,94066,1250000,4,2.0,1840.0,4792.0,37.61647,-122.41295500000001
704,2861 Fleetwood Dr,San Bruno,CA,94066,928000,3,2.0,1110.0,6098.0,37.627252,-122.44863400000001
705,430 Hawthorne Ave,San Bruno,CA,94066,1188000,3,2.0,1360.0,5022.0,37.616637,-122.42172
706,381 Huntington Ave,San Bruno,CA,94066,1450000,5,3.0,2860.0,3202.0,37.622073,-122.40745700000001
707,1811 Kains Ave,San Bruno,CA,94066,1375000,4,2.0,1710.0,5863.0,37.621951,-122.425373
708,3220 Longview Dr,San Bruno,CA,94066,1500000,4,3.0,2550.0,13939.2,37.628295,-122.45580600000001
709,400 N San Anselmo Ave,San Bruno,CA,94066,749998,2,1.0,990.0,4356.0,37.622229,-122.409006
710,523 Acacia Ave,San Bruno,CA,94066,925000,2,1.0,920.0,3700.0,37.622274,-122.41646200000001
711,2330 Rosewood Dr,San Bruno,CA,94066,1348000,4,2.0,1340.0,6957.0,37.615309,-122.431572
712,3491 Fleetwood Dr,San Bruno,CA,94066,1088000,4,3.0,2190.0,12196.8,37.635928,-122.458703
713,701 Green Ave,San Bruno,CA,94066,1295000,3,2.5,1980.0,4792.0,37.627528999999996,-122.414277
714,676 7th Ave,San Bruno,CA,94066,788000,3,2.0,1360.0,3049.0,37.629397999999995,-122.404997
715,565 Chestnut Ave,San Bruno,CA,94066,998000,3,1.0,1360.0,5998.0,37.621623,-122.420951
716,2571 Heather Ln,San Bruno,CA,94066,899000,3,2.0,1110.0,6500.0,37.628403999999996,-122.44383899999998
717,718 Pepper Dr,San Bruno,CA,94066,1190000,3,2.0,1410.0,4792.0,37.62255,-122.42581299999999
718,3035 Fleetwood Dr,San Bruno,CA,94066,1388000,5,3.0,1110.0,7980.0,37.631476,-122.45251
719,2301 Toyon Way,San Bruno,CA,94066,988000,3,2.0,1110.0,8276.0,37.630143,-122.43927099999999
720,925 Lupin Way,San Carlos,CA,94070,1600000,4,2.0,1749.0,5502.0,37.494408,-122.265083
721,1408 Cordilleras Ave,San Carlos,CA,94070,2248000,4,2.0,2250.0,6599.0,37.49103,-122.25752299999999
722,2253 Howard Ave,San Carlos,CA,94070,1499000,3,2.0,1628.0,6120.0,37.491651,-122.260998
723,970 Holly St,San Carlos,CA,94070,1199000,2,1.0,890.0,5850.0,37.510940000000005,-122.25960400000001
724,136 Northam Ave,San Carlos,CA,94070,3188813,4,3.5,3700.0,6887.0,37.50873,-122.27566000000002
725,30 Hilltop Dr,San Carlos,CA,94070,1750000,3,2.0,1762.0,5249.0,37.488294,-122.260512
726,1411 Crestview Dr,San Carlos,CA,94070,1950000,3,2.0,2450.0,10018.8,37.476999,-122.28101200000002
727,321 Clifton Ave,San Carlos,CA,94070,2695000,5,3.5,3510.0,8002.0,37.50483,-122.27936100000001
728,447 Hillcrest Rd,San Carlos,CA,94070,1998000,3,2.0,2610.0,5798.0,37.502915,-122.269149
729,300 Chestnut St,San Carlos,CA,94070,2395000,3,3.0,2415.0,13068.0,37.507585999999996,-122.26705
730,2724 Eaton Ave,San Carlos,CA,94070,3599000,5,4.5,3510.0,5702.0,37.48482,-122.26393999999999
731,125 Northam Ave,San Carlos,CA,94070,3050000,5,4.5,4260.0,5602.0,37.508169,-122.27576
732,1101 Cordilleras Ave,San Carlos,CA,94070,2159000,3,2.5,1820.0,4400.0,37.494448999999996,-122.260521
733,10 Shratton Ave,San Carlos,CA,94070,2295000,3,3.0,2610.0,7701.0,37.500343,-122.286
734,112 Belvedere Ave,San Carlos,CA,94070,1590000,3,2.0,1260.0,4600.0,37.494879,-122.25146000000001
735,887 Elm St,San Carlos,CA,94070,2880000,4,4.5,2540.0,5005.0,37.502031,-122.258334
736,120 Arundel Rd,San Carlos,CA,94070,1725000,2,2.0,1420.0,8425.0,37.504111,-122.27128
737,1071 Lupin Way Unit Lowr,San Carlos,CA,94070,1498000,3,1.0,1220.0,7449.0,37.492288,-122.26518899999999
739,227 Edgehill Dr,San Carlos,CA,94070,1699000,3,2.0,1310.0,8102.0,37.489897,-122.26028799999999
740,1159 Alameda,San Carlos,CA,94070,1650000,3,2.0,1790.0,5920.0,37.490728999999995,-122.264536
741,2912 Franciscan Ct,San Carlos,CA,94070,1710000,3,2.5,1750.0,5998.0,37.485535999999996,-122.267798
742,147 Oakley Ave,San Carlos,CA,94070,3650000,5,4.5,4839.0,21780.0,37.497547,-122.28666799999999
743,1520 School St,San Carlos,CA,94070,1795000,3,2.5,1680.0,6599.0,37.501996999999996,-122.259622
744,933 Woodland Ave,San Carlos,CA,94070,2480000,4,3.0,2450.0,5401.0,37.499396000000004,-122.25862099999999
745,136 Chesham Ave,San Carlos,CA,94070,1799000,4,2.0,1850.0,7000.0,37.495929,-122.281025
746,2713 Clifford Ave,San Carlos,CA,94070,2790000,3,3.0,2820.0,13068.0,37.483844,-122.26208000000001
747,247 Fairmont Ave,San Carlos,CA,94070,1749000,3,2.0,1440.0,4400.0,37.4889,-122.25569099999998
748,2501 Melendy Dr,San Carlos,CA,94070,1895000,4,2.0,1850.0,6935.0,37.493224,-122.271619
749,5 Porto Marino Ln,San Carlos,CA,94070,3248000,4,3.0,3440.0,57499.2,37.491054,-122.276077
750,1094 Hewitt Dr,San Carlos,CA,94070,2350000,4,3.0,2112.0,9000.0,37.488174,-122.27153
751,30 Gateway Ct,San Carlos,CA,94070,2400000,4,3.5,2861.0,4792.0,37.506642,-122.285661
752,2460 Howard Ave,San Carlos,CA,94070,3150000,4,3.0,3213.0,10454.4,37.489175,-122.26439099999999
754,145 Bear Gulch Rd,San Gregorio,CA,94074,4995000,1,1.0,800.0,13645605.6,37.332917,-122.35481100000001
755,234 8th Ln,South San Francisco,CA,94080,788000,2,1.0,860.0,3498.0,37.659532,-122.40780500000001
756,230 Hazelwood Dr,South San Francisco,CA,94080,899000,2,1.0,990.0,4500.0,37.640147,-122.430994
757,108 Arroyo Dr,South San Francisco,CA,94080,1100000,3,2.0,1150.0,10454.4,37.654859,-122.43871200000001
758,35 Capay Cir,South San Francisco,CA,94080,1125000,3,2.0,1380.0,9322.0,37.649527,-122.442944
759,757 Baden Ave,South San Francisco,CA,94080,899000,2,1.0,1110.0,4792.0,37.657317,-122.42589299999999
760,115 Buxton Ave,South San Francisco,CA,94080,925000,3,1.0,1050.0,4500.0,37.662514,-122.45982099999999
761,114 Manzanita Ave,South San Francisco,CA,94080,948000,3,1.0,1080.0,4591.0,37.650515000000006,-122.421304
762,10 Arlington Dr,South San Francisco,CA,94080,850000,3,2.0,1590.0,4356.0,37.670138,-122.454109
763,2504 Ardee Ln,South San Francisco,CA,94080,799000,3,2.0,2240.0,5000.0,37.642392,-122.459854
764,124 Mountain Rd,South San Francisco,CA,94080,1198888,3,2.5,1580.0,3302.0,37.664275,-122.422106
765,433 Dianne Ct,South San Francisco,CA,94080,1288888,4,2.5,2050.0,7000.0,37.638541,-122.43659299999999
766,28 Mandalay Pl,South San Francisco,CA,94080,1650000,4,2.5,2500.0,2958.0,37.666702,-122.401872
767,547 Miller Ave,South San Francisco,CA,94080,1175000,3,1.5,1560.0,5663.0,37.657656,-122.41788799999999
768,3907 Crofton Way,South San Francisco,CA,94080,1200000,3,2.0,1690.0,2614.0,37.6491,-122.462275
769,807 LA Montagne Pl,South San Francisco,CA,94080,1378000,3,2.5,2250.0,2265.0,37.666877,-122.425046
770,2370 Bourbon Ct,South San Francisco,CA,94080,1350000,4,2.5,1750.0,7261.0,37.640848999999996,-122.45640900000001
771,898 Camaritas Cir,South San Francisco,CA,94080,1050000,3,2.0,1020.0,5227.0,37.664262,-122.45061100000001
772,1189 Morningside Ave,South San Francisco,CA,94080,899000,2,1.0,870.0,4874.0,37.669047,-122.43300900000001
773,151 Escanyo Dr,South San Francisco,CA,94080,1200000,4,2.0,1600.0,7200.0,37.649797,-122.44886899999999
774,509 Magnolia Ave,South San Francisco,CA,94080,998000,2,2.0,1260.0,3999.0,37.659575,-122.419331
775,220 Village Way,South San Francisco,CA,94080,875000,3,1.0,1000.0,2178.0,37.652969,-122.40988700000001
776,37 Parkgrove Dr,South San Francisco,CA,94080,1595000,4,2.5,2410.0,5663.0,37.671007,-122.41627700000001
777,816 Byron Dr,South San Francisco,CA,94080,925000,3,2.0,1310.0,5227.0,37.66168,-122.45361100000001
778,23 Viewmont Ter,South San Francisco,CA,94080,1219000,3,3.0,1930.0,4356.0,37.663292999999996,-122.423978
779,296 Evergreen Dr,South San Francisco,CA,94080,1199000,3,3.0,2360.0,4356.0,37.666546999999994,-122.43958500000001
780,396 Willow Ave,South San Francisco,CA,94080,950000,3,1.0,1080.0,4591.0,37.664741,-122.43273799999999
781,477 Alta Vista Dr,South San Francisco,CA,94080,1199000,3,2.0,1650.0,5001.0,37.637968,-122.438562
782,3973 Chatham Ct,South San Francisco,CA,94080,1098000,4,2.0,1820.0,2450.0,37.649947,-122.46537099999999
783,68 Arlington Dr,South San Francisco,CA,94080,799000,3,1.0,990.0,4500.0,37.66758,-122.458174
784,3140 Dublin Ct,South San Francisco,CA,94080,1289000,3,3.0,1820.0,7405.0,37.642655,-122.456755
785,150 Pecks Ln,South San Francisco,CA,94080,1198000,4,2.0,1370.0,4356.0,37.664207,-122.40452900000001
786,208 Northwood Dr,South San Francisco,CA,94080,899000,2,1.0,990.0,4500.0,37.641581,-122.42950400000001
787,615 Cypress Ave,Sunnyvale,CA,94085,1495000,3,1.5,1352.0,5332.0,37.38819,-122.01480600000001
788,322 Jackson St,Sunnyvale,CA,94085,1799000,3,2.5,2123.0,6904.0,37.383972,-122.02418600000001
789,949 E Duane Ave,Sunnyvale,CA,94085,1199888,3,2.0,1050.0,5471.0,37.388718,-122.002172
790,572 E Duane Ave,Sunnyvale,CA,94085,1290000,3,2.0,1009.0,5680.0,37.388835,-122.01640900000001
791,808 San Rafael St,Sunnyvale,CA,94085,1195000,3,2.0,1326.0,5990.0,37.391846,-122.002726
792,677 Cypress Ave,Sunnyvale,CA,94085,1498000,5,3.0,2101.0,5314.0,37.3879,-122.013421
793,755 Borregas Ave,Sunnyvale,CA,94085,1139000,3,1.0,1027.0,5001.0,37.395361,-122.023711
794,565 Manzanita Ave,Sunnyvale,CA,94085,1199888,2,1.0,884.0,5044.0,37.389579,-122.026503
795,304 Roosevelt Ave,Sunnyvale,CA,94085,1775000,4,2.5,1924.0,7000.0,37.382493,-122.02128700000002
796,731 Manzanita Ave,Sunnyvale,CA,94085,1435000,4,3.0,1825.0,4491.0,37.394996,-122.02472900000001
797,582 Maple Ave,Sunnyvale,CA,94085,1218000,3,1.0,1044.0,5358.0,37.388637,-122.019176
798,386 E Duane Ave,Sunnyvale,CA,94085,1660000,3,2.0,1493.0,5271.0,37.389755,-122.02174099999999
799,Echo - Plan 2,Sunnyvale,CA,94085,1424000,3,2.0,1851.0,,37.387268,-122.004052
800,Echo - Plan 1,Sunnyvale,CA,94085,1434000,3,3.5,1851.0,,37.387268,-122.004052
801,Echo - Plan 3,Sunnyvale,CA,94085,1498000,4,3.5,1875.0,,37.387268,-122.004052
802,Plan One,Sunnyvale,CA,94085,1448000,3,3.5,2007.0,,37.387268,-122.004052
803,Plan Three,Sunnyvale,CA,94085,1498000,4,3.5,2014.0,,37.387268,-122.004052
804,Plan Two,Sunnyvale,CA,94085,1488000,4,3.5,2002.0,,37.387268,-122.004052
805,Plan Four,Sunnyvale,CA,94085,1548000,4,3.5,1960.0,,37.387268,-122.004052
806,871 Lori Ave,Sunnyvale,CA,94086,1395000,3,2.0,1141.0,5001.0,37.384607,-122.03895800000001
807,223 Roosevelt Ave,Sunnyvale,CA,94086,1495000,3,2.5,1750.0,4199.0,37.381071,-122.02243600000001
808,883 Henderson Ave,Sunnyvale,CA,94086,1549000,4,2.0,1688.0,6521.0,37.359404999999995,-122.005311
809,1178 Myrtle Dr,Sunnyvale,CA,94086,1299000,3,2.0,1580.0,5445.0,37.360803000000004,-121.99741000000002
810,219 W Olive Ave,Sunnyvale,CA,94086,1899000,4,2.5,1612.0,4160.0,37.371371,-122.03381200000001
811,318 Bartlett Ave,Sunnyvale,CA,94086,1295000,3,1.0,956.0,5140.0,37.378176,-122.016254
812,664 W Mc Kinley Ave,Sunnyvale,CA,94086,1824988,3,1.0,1352.0,7261.0,37.375510999999996,-122.03780800000001
813,867 Acacia Ave,Sunnyvale,CA,94086,1499000,3,3.0,1776.0,5001.0,37.378739,-122.01724399999999
814,837 Gladiola Dr,Sunnyvale,CA,94086,1650000,4,2.0,1713.0,6743.0,37.364055,-122.016705
815,1059 Carson Dr,Sunnyvale,CA,94086,1839000,3,2.0,2180.0,6813.0,37.381837,-122.047797
816,187 Matadero Dr,Sunnyvale,CA,94086,1598000,3,2.0,1413.0,6007.0,37.379740000000005,-122.045147
817,908 Bluebonnet Dr,Sunnyvale,CA,94086,1750000,4,2.0,1659.0,6488.0,37.367234,-122.012759
818,687 Toyon Ave,Sunnyvale,CA,94086,1648000,4,2.0,1507.0,5567.0,37.364381,-121.99817
819,356 E Washington Ave,Sunnyvale,CA,94086,1499888,3,2.0,1350.0,4199.0,37.375153000000005,-122.02748000000001
820,430 Juniper Ct,Sunnyvale,CA,94086,1980000,4,2.0,1827.0,6395.0,37.36933,-122.015018
821,536 Hawthorn Ave,Sunnyvale,CA,94086,2050000,3,2.0,1360.0,13503.6,37.368035,-122.01961499999999
822,309 Polaris Ter,Sunnyvale,CA,94086,1898000,3,2.5,1869.0,2526.0,37.373028000000005,-122.033988
823,215 Roosevelt Ave,Sunnyvale,CA,94086,1748000,3,2.5,1750.0,4901.0,37.380905,-122.02249199999999
824,1532 Dominion Ave,Sunnyvale,CA,94087,1950000,3,2.0,1426.0,16117.2,37.343636,-122.05636299999999
825,728 Dona Ave,Sunnyvale,CA,94087,1425000,3,1.0,1024.0,6299.0,37.37041,-122.05272099999999
826,1560 Heron Ave,Sunnyvale,CA,94087,1745000,3,2.0,1684.0,6199.0,37.343265,-122.018593
827,1045 Robin Way,Sunnyvale,CA,94087,1660000,3,2.0,1567.0,16117.2,37.362018,-122.061452
828,1453 Firebird Way,Sunnyvale,CA,94087,1685000,4,2.5,1671.0,6804.0,37.346776,-122.022995
829,1027 Kenbridge Ct,Sunnyvale,CA,94087,1799000,4,2.0,1371.0,7431.0,37.363627,-122.051801
830,1643 Swallow Dr,Sunnyvale,CA,94087,1788000,4,2.0,1421.0,6303.0,37.339490999999995,-122.002877
831,933 Leighton Way,Sunnyvale,CA,94087,1800000,5,3.0,2274.0,6434.0,37.339496000000004,-122.01018899999998
832,1393 Hampton Dr,Sunnyvale,CA,94087,1988888,3,1.0,1290.0,7558.0,37.348576,-122.01346000000001
833,1784 Lark Ln,Sunnyvale,CA,94087,1799888,4,2.0,1828.0,6643.0,37.333812,-122.017124
834,1621 Waxwing Ave,Sunnyvale,CA,94087,1799950,3,2.0,1720.0,6146.0,37.339146,-121.998126
835,1236 Van Dyck Dr,Sunnyvale,CA,94087,1899950,4,2.5,1912.0,6351.0,37.353857,-122.018879
836,997 Chelan Dr,Sunnyvale,CA,94087,2148800,3,2.0,1733.0,9666.0,37.346536,-122.054676
837,1580 Belleville Way,Sunnyvale,CA,94087,2269000,4,3.0,2227.0,12632.4,37.342118,-122.060321
838,1690 Kennewick Dr,Sunnyvale,CA,94087,1999800,4,2.0,1908.0,8120.0,37.338243,-122.04581100000001
839,1092 Inverness Way,Sunnyvale,CA,94087,1888000,3,2.0,1872.0,6970.0,37.341657,-122.003483
840,1389 Belleville Way,Sunnyvale,CA,94087,2580000,4,2.5,2274.0,9866.0,37.347867,-122.062578
841,1564 Quail Ave,Sunnyvale,CA,94087,1895000,3,2.0,1524.0,6373.0,37.342949,-122.005095
842,149 Berwick Way,Sunnyvale,CA,94087,2098000,4,2.0,1770.0,7153.0,37.350745,-122.030606
843,772 Limerick Ct,Sunnyvale,CA,94087,1749000,3,2.0,1402.0,5911.0,37.338986,-122.019462
844,951 E Homestead Rd,Sunnyvale,CA,94087,1598000,3,2.0,1290.0,6573.0,37.338017,-122.00907600000001
845,1166 Pome Ave,Sunnyvale,CA,94087,1999800,4,2.0,1437.0,10454.4,37.355962,-122.045223
846,501 Kinross Ct,Sunnyvale,CA,94087,1999999,5,3.5,2650.0,5500.0,37.34,-122.0294
847,136 Avon Ter,Sunnyvale,CA,94087,1790000,3,2.5,1639.0,3393.0,37.367008,-122.100113
848,856 Radcliff Way,Sunnyvale,CA,94087,2175000,3,2.5,1892.0,6804.0,37.360014,-122.04841499999999
849,1502 Kingsgate Dr,Sunnyvale,CA,94087,2480000,4,2.0,1872.0,8716.0,37.344623999999996,-122.047716
850,735 Lakewood Dr,Sunnyvale,CA,94089,1375000,3,2.0,1420.0,5467.0,37.394635,-122.00463300000001
851,921 Lakebird Dr,Sunnyvale,CA,94089,1140000,3,2.0,1258.0,5942.0,37.399508000000004,-121.99884399999999
852,380 Greenlake Dr,Sunnyvale,CA,94089,1298000,3,2.0,1108.0,6826.0,37.39945,-122.00770700000001
853,1365 Socorro Ave,Sunnyvale,CA,94089,1380000,4,2.0,1580.0,5841.0,37.390643,-121.98811599999999
854,304 Persian Dr,Sunnyvale,CA,94089,2250000,3,1.0,1000.0,13068.0,37.404512,-122.01753500000001
855,230 Velvetlake Dr,Sunnyvale,CA,94089,1399000,4,3.0,1468.0,8425.0,37.392911,-121.996372
856,835 S Lakewood Dr,Sunnyvale,CA,94089,1450000,3,2.0,1108.0,5512.0,37.393539000000004,-122.00078899999998
857,1157 Prescott Ave,Sunnyvale,CA,94089,999000,3,2.0,1108.0,6050.0,37.39784,-121.992814
858,1121 Fairwood Ave,Sunnyvale,CA,94089,1249000,3,2.0,1108.0,7636.0,37.396506,-121.991545
859,1101 Palamos Ave,Sunnyvale,CA,94089,1199000,3,2.0,1108.0,5654.0,37.399562,-121.995442
860,746 Lakemuir Dr,Sunnyvale,CA,94089,1298800,3,2.0,1416.0,5889.0,37.394752000000004,-122.00399099999998
861,1273 Socorro Ave,Sunnyvale,CA,94089,1340000,3,2.0,1486.0,5401.0,37.393838,-121.989203
862,1241 Pecos Way,Sunnyvale,CA,94089,1189000,3,2.0,1108.0,6375.0,37.399142,-121.98960100000001
863,735 Lakewood Dr,Sunnyvale,CA,94089,1375000,3,2.0,1420.0,5467.0,37.394635,-122.00463300000001
864,921 Lakebird Dr,Sunnyvale,CA,94089,1140000,3,2.0,1258.0,5942.0,37.399508000000004,-121.99884399999999
865,1241 Pecos Way,Sunnyvale,CA,94089,1189000,3,2.0,1108.0,6375.0,37.399142,-121.98960100000001
866,746 Lakemuir Dr,Sunnyvale,CA,94089,1298800,3,2.0,1416.0,5889.0,37.394752000000004,-122.00399099999998
867,1157 Prescott Ave,Sunnyvale,CA,94089,999000,3,2.0,1108.0,6050.0,37.39784,-121.992814
868,230 Velvetlake Dr,Sunnyvale,CA,94089,1399000,4,3.0,1468.0,8425.0,37.392911,-121.996372
869,380 Greenlake Dr,Sunnyvale,CA,94089,1298000,3,2.0,1108.0,6826.0,37.39945,-122.00770700000001
870,835 S Lakewood Dr,Sunnyvale,CA,94089,1450000,3,2.0,1108.0,5512.0,37.393539000000004,-122.00078899999998
871,1121 Fairwood Ave,Sunnyvale,CA,94089,1249000,3,2.0,1108.0,7636.0,37.396506,-121.991545
872,1365 Socorro Ave,Sunnyvale,CA,94089,1380000,4,2.0,1580.0,5841.0,37.390643,-121.98811599999999
873,1101 Palamos Ave,Sunnyvale,CA,94089,1199000,3,2.0,1108.0,5654.0,37.399562,-121.995442
874,304 Persian Dr,Sunnyvale,CA,94089,2250000,3,1.0,1000.0,13068.0,37.404512,-122.01753500000001
875,1273 Socorro Ave,Sunnyvale,CA,94089,1340000,3,2.0,1486.0,5401.0,37.393838,-121.989203
876,334 Harriet St,San Francisco,CA,94103,1195000,2,2.0,,,37.775061,-122.402644
877,1331 Folsom St,San Francisco,CA,94103,4000000,2,4.0,,2178.0,37.773292,-122.41178000000001
878,456 Clementina St,San Francisco,CA,94103,4250000,2,2.5,4950.0,3920.0,37.77977,-122.405274
879,1126 Rhode Island St,San Francisco,CA,94107,1799000,3,2.0,1632.0,2614.0,37.755565999999995,-122.401999
880,779 Wisconsin St,San Francisco,CA,94107,3698000,4,3.5,,2614.0,37.757647,-122.39866
881,228 Clara St,San Francisco,CA,94107,1509000,1,1.0,800.0,2178.0,37.778973,-122.403272
882,1387 DE Haro St,San Francisco,CA,94107,995000,1,1.0,794.0,1742.0,37.752338,-122.400094
883,547 Missouri St,San Francisco,CA,94107,4995000,5,5.5,,2614.0,37.759372,-122.395909
884,224 Mississippi St,San Francisco,CA,94107,2700000,2,2.0,3400.0,2614.0,37.763555,-122.39498799999998
885,712 DE Haro St,San Francisco,CA,94107,3598000,4,3.5,2826.0,2614.0,37.760734,-122.40151999999999
886,1126 Rhode Island St,San Francisco,CA,94107,1799000,3,2.0,1632.0,2614.0,37.755565999999995,-122.401999
887,779 Wisconsin St,San Francisco,CA,94107,3698000,4,3.5,,2614.0,37.757647,-122.39866
888,228 Clara St,San Francisco,CA,94107,1509000,1,1.0,800.0,2178.0,37.778973,-122.403272
889,1387 DE Haro St,San Francisco,CA,94107,995000,1,1.0,794.0,1742.0,37.752338,-122.400094
890,547 Missouri St,San Francisco,CA,94107,4995000,5,5.5,,2614.0,37.759372,-122.395909
891,224 Mississippi St,San Francisco,CA,94107,2700000,2,2.0,3400.0,2614.0,37.763555,-122.39498799999998
892,712 DE Haro St,San Francisco,CA,94107,3598000,4,3.5,2826.0,2614.0,37.760734,-122.40151999999999
893,920 Powell St,San Francisco,CA,94108,3199000,4,4.0,,,37.793289,-122.409209
894,1110 Green St,San Francisco,CA,94109,14400000,4,6.0,,,37.798642,-122.417693
895,2323 Hyde St,San Francisco,CA,94109,13800000,6,6.5,8846.0,6534.0,37.802259,-122.419873
896,1350 Jones St,San Francisco,CA,94109,16500000,4,4.0,,2178.0,37.793862,-122.414359
897,5 N View Ct,San Francisco,CA,94109,3350000,4,2.0,2963.0,3485.0,37.804034,-122.42263
898,1 McCormick St,San Francisco,CA,94109,3795000,4,4.0,3033.0,1742.0,37.794921,-122.41917099999999
899,606 Ellis St,San Francisco,CA,94109,1888000,3,2.0,1635.0,2178.0,37.784616,-122.41648300000001
900,5 Torrens Ct,San Francisco,CA,94109,1599000,3,1.0,1291.0,2178.0,37.793011,-122.418768
901,898 Francisco St,San Francisco,CA,94109,10950000,6,6.5,6305.0,5663.0,37.804120000000005,-122.41981399999999
902,2531 Larkin St,San Francisco,CA,94109,2395000,4,2.0,2575.0,2614.0,37.80126,-122.42145900000001
903,151 Bernard St,San Francisco,CA,94109,1999000,3,3.5,,1307.0,37.796094000000004,-122.415924
904,1110 Green St,San Francisco,CA,94109,14400000,4,6.0,,,37.798642,-122.417693
905,2323 Hyde St,San Francisco,CA,94109,13800000,6,6.5,8846.0,6534.0,37.802259,-122.419873
906,1350 Jones St,San Francisco,CA,94109,16500000,4,4.0,,2178.0,37.793862,-122.414359
907,5 N View Ct,San Francisco,CA,94109,3350000,4,2.0,2963.0,3485.0,37.804034,-122.42263
908,1 McCormick St,San Francisco,CA,94109,3795000,4,4.0,3033.0,1742.0,37.794921,-122.41917099999999
909,606 Ellis St,San Francisco,CA,94109,1888000,3,2.0,1635.0,2178.0,37.784616,-122.41648300000001
910,5 Torrens Ct,San Francisco,CA,94109,1599000,3,1.0,1291.0,2178.0,37.793011,-122.418768
911,898 Francisco St,San Francisco,CA,94109,10950000,6,6.5,6305.0,5663.0,37.804120000000005,-122.41981399999999
912,2531 Larkin St,San Francisco,CA,94109,2395000,4,2.0,2575.0,2614.0,37.80126,-122.42145900000001
913,151 Bernard St,San Francisco,CA,94109,1999000,3,3.5,,1307.0,37.796094000000004,-122.415924
914,24 Costa St,San Francisco,CA,94110,849000,1,1.0,1025.0,1956.0,37.744887,-122.406566
915,738 Banks St,San Francisco,CA,94110,999000,3,2.0,1509.0,1742.0,37.733979,-122.413328
916,1609 Dolores St,San Francisco,CA,94110,2495000,4,2.0,2094.0,1742.0,37.743595,-122.424025
917,521 Ellsworth St,San Francisco,CA,94110,995000,2,1.0,1000.0,1742.0,37.73681,-122.41456299999999
918,144 Andover St,San Francisco,CA,94110,1339250,2,1.5,1744.0,1742.0,37.741081,-122.41654199999999
919,7 Wool St,San Francisco,CA,94110,695000,1,1.0,800.0,1742.0,37.741434999999996,-122.416756
920,82 Putnam St,San Francisco,CA,94110,800000,3,1.0,1240.0,1742.0,37.738493,-122.41104299999999
921,2770 23rd St,San Francisco,CA,94110,1175000,3,1.5,1454.0,1285.0,37.754582,-122.407871
922,3145 Cesar Chavez,San Francisco,CA,94110,1195000,2,1.0,1315.0,5227.0,37.747895,-122.41250900000001
923,364 Crescent Ave,San Francisco,CA,94110,2495000,4,3.0,2725.0,2614.0,37.734747,-122.417625
924,626 Banks St,San Francisco,CA,94110,898000,2,1.0,825.0,1742.0,37.735494,-122.41318799999999
925,173 Anderson St,San Francisco,CA,94110,1150000,4,1.5,1494.0,1742.0,37.740660999999996,-122.414956
926,226 Richland Ave,San Francisco,CA,94110,1500000,2,1.0,1430.0,2614.0,37.735661,-122.422226
927,373 Moultrie St,San Francisco,CA,94110,1295000,2,1.5,,1742.0,37.739351,-122.415681
928,276 Ripley St,San Francisco,CA,94110,4200000,4,3.5,,6098.0,37.74407,-122.409135
929,1225 San Bruno Ave,San Francisco,CA,94110,1199000,2,1.0,930.0,1742.0,37.753603000000005,-122.40413999999998
930,324 Rutledge St,San Francisco,CA,94110,1898000,4,3.5,1733.0,2614.0,37.745131,-122.40981000000001
931,151 Liberty St,San Francisco,CA,94110,8600000,6,4.5,5085.0,3049.0,37.757384,-122.424479
932,156 Bonview St,San Francisco,CA,94110,999000,2,1.0,750.0,1742.0,37.741806,-122.417854
933,540 Shotwell St,San Francisco,CA,94110,1599000,4,3.0,1801.0,3485.0,37.759772999999996,-122.41618600000001
934,122 Brewster St,San Francisco,CA,94110,1695000,4,3.0,2333.0,1742.0,37.744752000000005,-122.407142
935,400 Franconia St,San Francisco,CA,94110,1800000,5,4.5,4845.0,6534.0,37.74349,-122.407925
936,45 Montcalm St,San Francisco,CA,94110,1425000,2,2.0,1275.0,1873.0,37.747144,-122.405778
937,1328 York St,San Francisco,CA,94110,1650000,3,1.0,1200.0,2596.0,37.750733000000004,-122.408266
938,48 Fair Ave,San Francisco,CA,94110,1495000,3,2.0,1582.0,1742.0,37.745129999999996,-122.41919299999999
939,2975 Harrison St,San Francisco,CA,94110,1549000,2,1.0,1200.0,2614.0,37.74992,-122.411323
940,3336 23rd St,San Francisco,CA,94110,3195000,3,3.5,2668.0,2178.0,37.753986,-122.41940600000001
941,32-A Elsie St,San Francisco,CA,94110,2395000,4,2.5,2231.0,1742.0,37.744371,-122.41688799999999
942,39 Virginia Ave,San Francisco,CA,94110,1439000,2,1.0,1434.0,1742.0,37.743021999999996,-122.42073799999999
943,33 Stoneman St,San Francisco,CA,94110,1899000,3,3.0,2170.0,1742.0,37.744882000000004,-122.41448899999999
944,154 Bonview St,San Francisco,CA,94110,2725000,3,2.5,1875.0,2614.0,37.741867,-122.41781499999999
945,114 Virginia Ave,San Francisco,CA,94110,2750000,5,4.0,2570.0,1742.0,37.742308,-122.419974
946,100 Gates St,San Francisco,CA,94110,2400000,3,4.0,2120.0,1742.0,37.741443,-122.41402099999999
947,76 Cortland Ave,San Francisco,CA,94110,1849000,3,2.5,1392.0,1250.0,37.740256,-122.42136299999999
948,489 Madrid St,San Francisco,CA,94112,740500,2,1.0,1900.0,2496.0,37.721717,-122.43238799999999
949,14 Edna St,San Francisco,CA,94112,925000,1,1.0,1145.0,2614.0,37.726924,-122.446276
950,211 Miramar Ave,San Francisco,CA,94112,950000,2,2.0,1750.0,3049.0,37.722231,-122.45849799999999
951,363 Howth St,San Francisco,CA,94112,899000,3,1.0,1635.0,3049.0,37.718802000000004,-122.451898
952,27 Stoneybrook Ave,San Francisco,CA,94112,899000,3,1.0,1016.0,2178.0,37.730615,-122.421503
953,210 Faxon Ave,San Francisco,CA,94112,758000,2,1.0,852.0,1873.0,37.718466,-122.45996000000001
954,73 Danton St,San Francisco,CA,94112,765000,2,1.0,960.0,2614.0,37.731348,-122.43219199999999
955,33 Sadowa St,San Francisco,CA,94112,1900000,2,1.0,4955.0,6098.0,37.712073,-122.45533400000001
956,461 Capistrano Ave,San Francisco,CA,94112,1150000,3,2.0,1421.0,2614.0,37.724628,-122.438926
957,2691 Alemany Blvd,San Francisco,CA,94112,899000,2,1.0,1238.0,1742.0,37.713811,-122.44852900000001
958,105 Vienna St,San Francisco,CA,94112,705000,2,1.0,924.0,1742.0,37.726431,-122.42561599999999
959,147 Gladstone Dr,San Francisco,CA,94112,899000,2,2.0,,,37.729146,-122.42200700000001
960,531 Paris St,San Francisco,CA,94112,850000,6,5.0,1667.0,2500.0,37.720073,-122.435805
961,342 Lisbon St,San Francisco,CA,94112,1298000,3,3.0,2480.0,2614.0,37.722984999999994,-122.433203
962,226 Trumbull St,San Francisco,CA,94112,699000,2,1.0,1025.0,2614.0,37.730689,-122.42547900000001
963,130 Josiah Ave,San Francisco,CA,94112,848000,2,2.0,,2614.0,37.717562,-122.453906
964,349 Winding Way,San Francisco,CA,94112,1895000,4,5.0,3569.0,4356.0,37.709146000000004,-122.437661
965,342 Delano Ave,San Francisco,CA,94112,1150000,3,3.0,2224.0,3049.0,37.723853000000005,-122.443129
966,355 Granada Ave,San Francisco,CA,94112,1295000,3,2.0,,,37.724938,-122.457546
967,360 London St,San Francisco,CA,94112,1195000,3,2.5,1744.0,2614.0,37.723454,-122.435027
968,666 Geneva Ave,San Francisco,CA,94112,1350000,4,2.5,1522.0,1742.0,37.71915,-122.444324
969,546 Paris St,San Francisco,CA,94112,899000,2,1.0,1250.0,2614.0,37.720196,-122.436399
970,120 Brunswick St,San Francisco,CA,94112,899000,2,1.0,1182.0,2614.0,37.711785,-122.439549
971,300 College Ave,San Francisco,CA,94112,1885000,3,2.0,1950.0,3920.0,37.734367999999996,-122.424121
972,355 Ney St,San Francisco,CA,94112,749950,2,1.0,862.0,1742.0,37.730711,-122.423468
973,126 Ashton Ave,San Francisco,CA,94112,1065000,3,2.0,1721.0,2614.0,37.720546999999996,-122.461942
974,174 Majestic Ave,San Francisco,CA,94112,899000,3,2.0,1356.0,2614.0,37.715969,-122.45308999999999
975,39 Chicago Way,San Francisco,CA,94112,898888,2,1.0,990.0,3485.0,37.710198999999996,-122.42900800000001
976,242 Minerva St,San Francisco,CA,94112,1128000,4,4.0,,3049.0,37.716001,-122.460692
977,572 Cordova St,San Francisco,CA,94112,899000,2,1.0,1137.0,2614.0,37.708549,-122.43456299999998
978,2217 San Jose Ave,San Francisco,CA,94112,998000,2,1.5,900.0,2614.0,37.72124,-122.445784
979,28 Liebig St,San Francisco,CA,94112,1295000,8,3.0,2665.0,3920.0,37.708594,-122.455922
980,275 Santa Rosa Ave,San Francisco,CA,94112,1499126,5,2.0,1393.0,4356.0,37.728426,-122.4397
981,125 Margaret Ave,San Francisco,CA,94112,998000,4,2.0,1502.0,2614.0,37.716863000000004,-122.452751
982,218 Thrift St,San Francisco,CA,94112,949000,2,1.0,1150.0,3049.0,37.717711,-122.45984399999999
983,412 College Ave,San Francisco,CA,94112,1599000,3,2.0,1650.0,3920.0,37.733251,-122.42396200000002
984,212 Sagamore St,San Francisco,CA,94112,1095000,4,2.0,1501.0,3049.0,37.711693,-122.45943799999999
985,330 Edna St,San Francisco,CA,94112,1575000,5,2.0,2265.0,2614.0,37.72956,-122.446293
986,14 Edna St,San Francisco,CA,94112,925000,1,1.0,1145.0,2614.0,37.726924,-122.446276
987,489 Madrid St,San Francisco,CA,94112,740500,2,1.0,1900.0,2496.0,37.721717,-122.43238799999999
988,461 Capistrano Ave,San Francisco,CA,94112,1150000,3,2.0,1421.0,2614.0,37.724628,-122.438926
989,531 Paris St,San Francisco,CA,94112,850000,6,5.0,1667.0,2500.0,37.720073,-122.435805
990,27 Stoneybrook Ave,San Francisco,CA,94112,899000,3,1.0,1016.0,2178.0,37.730615,-122.421503
991,210 Faxon Ave,San Francisco,CA,94112,758000,2,1.0,852.0,1873.0,37.718466,-122.45996000000001
992,300 College Ave,San Francisco,CA,94112,1885000,3,2.0,1950.0,3920.0,37.734367999999996,-122.424121
993,363 Howth St,San Francisco,CA,94112,899000,3,1.0,1635.0,3049.0,37.718802000000004,-122.451898
994,360 London St,San Francisco,CA,94112,1195000,3,2.5,1744.0,2614.0,37.723454,-122.435027
995,28 Liebig St,San Francisco,CA,94112,1295000,8,3.0,2665.0,3920.0,37.708594,-122.455922
996,211 Miramar Ave,San Francisco,CA,94112,950000,2,2.0,1750.0,3049.0,37.722231,-122.45849799999999
997,412 College Ave,San Francisco,CA,94112,1599000,3,2.0,1650.0,3920.0,37.733251,-122.42396200000002
998,349 Winding Way,San Francisco,CA,94112,1895000,4,5.0,3569.0,4356.0,37.709146000000004,-122.437661
999,73 Danton St,San Francisco,CA,94112,765000,2,1.0,960.0,2614.0,37.731348,-122.43219199999999
1000,126 Ashton Ave,San Francisco,CA,94112,1065000,3,2.0,1721.0,2614.0,37.720546999999996,-122.461942
1001,572 Cordova St,San Francisco,CA,94112,899000,2,1.0,1137.0,2614.0,37.708549,-122.43456299999998
1002,33 Sadowa St,San Francisco,CA,94112,1900000,2,1.0,4955.0,6098.0,37.712073,-122.45533400000001
1003,666 Geneva Ave,San Francisco,CA,94112,1350000,4,2.5,1522.0,1742.0,37.71915,-122.444324
1004,147 Gladstone Dr,San Francisco,CA,94112,899000,2,2.0,,,37.729146,-122.42200700000001
1005,342 Lisbon St,San Francisco,CA,94112,1298000,3,3.0,2480.0,2614.0,37.722984999999994,-122.433203
1006,226 Trumbull St,San Francisco,CA,94112,699000,2,1.0,1025.0,2614.0,37.730689,-122.42547900000001
1007,330 Edna St,San Francisco,CA,94112,1575000,5,2.0,2265.0,2614.0,37.72956,-122.446293
1008,105 Vienna St,San Francisco,CA,94112,705000,2,1.0,924.0,1742.0,37.726431,-122.42561599999999
1009,2217 San Jose Ave,San Francisco,CA,94112,998000,2,1.5,900.0,2614.0,37.72124,-122.445784
1010,275 Santa Rosa Ave,San Francisco,CA,94112,1499126,5,2.0,1393.0,4356.0,37.728426,-122.4397
1011,120 Brunswick St,San Francisco,CA,94112,899000,2,1.0,1182.0,2614.0,37.711785,-122.439549
1012,355 Granada Ave,San Francisco,CA,94112,1295000,3,2.0,,,37.724938,-122.457546
1013,130 Josiah Ave,San Francisco,CA,94112,848000,2,2.0,,2614.0,37.717562,-122.453906
1014,342 Delano Ave,San Francisco,CA,94112,1150000,3,3.0,2224.0,3049.0,37.723853000000005,-122.443129
1015,2691 Alemany Blvd,San Francisco,CA,94112,899000,2,1.0,1238.0,1742.0,37.713811,-122.44852900000001
1016,242 Minerva St,San Francisco,CA,94112,1128000,4,4.0,,3049.0,37.716001,-122.460692
1017,355 Ney St,San Francisco,CA,94112,749950,2,1.0,862.0,1742.0,37.730711,-122.423468
1018,174 Majestic Ave,San Francisco,CA,94112,899000,3,2.0,1356.0,2614.0,37.715969,-122.45308999999999
1019,218 Thrift St,San Francisco,CA,94112,949000,2,1.0,1150.0,3049.0,37.717711,-122.45984399999999
1020,39 Chicago Way,San Francisco,CA,94112,898888,2,1.0,990.0,3485.0,37.710198999999996,-122.42900800000001
1021,125 Margaret Ave,San Francisco,CA,94112,998000,4,2.0,1502.0,2614.0,37.716863000000004,-122.452751
1022,546 Paris St,San Francisco,CA,94112,899000,2,1.0,1250.0,2614.0,37.720196,-122.436399
1023,212 Sagamore St,San Francisco,CA,94112,1095000,4,2.0,1501.0,3049.0,37.711693,-122.45943799999999
1024,4277 23rd St,San Francisco,CA,94114,1595000,2,1.0,,2614.0,37.752414,-122.438024
1025,4144 23rd St,San Francisco,CA,94114,1595000,2,1.5,1320.0,2848.0,37.753071999999996,-122.435327
1026,740 Diamond St,San Francisco,CA,94114,1995000,3,1.5,,,37.751326,-122.43658899999998
1027,446 Hill St,San Francisco,CA,94114,2895000,4,3.0,2137.0,3049.0,37.755736,-122.431124
1028,3767 23rd St,San Francisco,CA,94114,2995000,4,3.0,2491.0,2178.0,37.753126,-122.42686599999999
1029,1081 Church St,San Francisco,CA,94114,1995000,3,3.0,,1742.0,37.753633,-122.427351
1030,52 Caselli Ave,San Francisco,CA,94114,1680000,3,1.0,1250.0,3023.0,37.759963,-122.440546
1031,4406 24th St,San Francisco,CA,94114,1585000,2,1.0,1011.0,1742.0,37.751061,-122.44086599999999
1032,42 Graystone Ter,San Francisco,CA,94114,2150000,3,2.5,2600.0,2614.0,37.75843,-122.44761899999999
1033,51 Ord St,San Francisco,CA,94114,3600000,4,4.0,,1942.0,37.762993,-122.440018
1034,617 Elizabeth St,San Francisco,CA,94114,1595000,3,1.5,1380.0,2614.0,37.751821,-122.43463700000001
1035,4127 20th St,San Francisco,CA,94114,3495000,4,2.5,,3049.0,37.757534,-122.433159
1036,4376 17th St,San Francisco,CA,94114,3295000,3,3.5,,2178.0,37.762245,-122.44261399999999
1037,639 Grand View Ave,San Francisco,CA,94114,3395000,3,3.5,3660.0,3920.0,37.750073,-122.44234499999999
1038,4310 23rd St,San Francisco,CA,94114,2795000,4,3.5,,,37.752843,-122.439144
1039,258 Caselli Ave,San Francisco,CA,94114,2595000,5,3.5,2832.0,1742.0,37.759269,-122.44389299999999
1040,24 Clarendon Ave,San Francisco,CA,94114,4400000,4,3.5,4437.0,4356.0,37.759132,-122.449312
1041,4642 19th St,San Francisco,CA,94114,1985000,2,1.5,1800.0,2178.0,37.759175,-122.441529
1042,564 Liberty St,San Francisco,CA,94114,2995000,4,3.0,2845.0,3049.0,37.75718,-122.433833
1043,170 Palo Alto Ave,San Francisco,CA,94114,2914250,4,3.0,2683.0,6098.0,37.756996,-122.449991
1044,52 Clarendon Ave,San Francisco,CA,94114,4295000,3,5.0,3730.0,2614.0,37.759048,-122.450222
1045,571 Noe St,San Francisco,CA,94114,4200000,3,3.5,,2614.0,37.759912,-122.43236
1046,4273 22nd St,San Francisco,CA,94114,1995000,3,2.0,1795.0,3049.0,37.753893,-122.44028600000001
1047,52 Yukon St,San Francisco,CA,94114,2988000,5,3.5,2938.0,2287.0,37.758749,-122.44240500000001
1048,140 Clarendon Ave,San Francisco,CA,94114,4995000,4,3.5,4350.0,6970.0,37.758589,-122.452371
1049,688 Clipper St,San Francisco,CA,94114,2800000,4,3.5,2388.0,3523.0,37.74883,-122.43996200000001
1050,2104 Divisadero St,San Francisco,CA,94115,3895000,4,3.0,2740.0,2178.0,37.789302,-122.440403
1051,2787 Pine St,San Francisco,CA,94115,1650000,4,4.0,2244.0,2178.0,37.786721,-122.44156399999999
1052,2440 Scott St,San Francisco,CA,94115,5995000,4,3.5,4392.0,2614.0,37.792403,-122.43936799999999
1053,1960 Golden Gate Ave,San Francisco,CA,94115,2299000,3,3.0,,2614.0,37.778365,-122.44323700000001
1054,145 Presidio Ave,San Francisco,CA,94115,7495000,4,4.5,4701.0,,37.790185,-122.447635
1055,2148 Pine St,San Francisco,CA,94115,4200000,4,3.5,3539.0,3485.0,37.788548999999996,-122.431195
1056,2115 Bush St,San Francisco,CA,94115,5250000,4,4.5,3500.0,4356.0,37.786868,-122.432399
1057,2406 Bush St,San Francisco,CA,94115,3500000,3,3.0,2375.0,2614.0,37.786796,-122.43705700000001
1058,1335 Divisadero St,San Francisco,CA,94115,2495000,4,2.5,2124.0,2614.0,37.781982,-122.43953
1059,2094 Bush St,San Francisco,CA,94115,2790000,3,2.5,2346.0,2060.0,37.787465999999995,-122.431702
1060,2814 Clay St,San Francisco,CA,94115,3995000,6,4.5,,3920.0,37.790254,-122.439923
1061,464 Dewey Blvd,San Francisco,CA,94116,1199000,3,1.5,,,37.746411,-122.46075400000001
1062,2662 46th Ave,San Francisco,CA,94116,1038000,2,2.0,900.0,3049.0,37.73689,-122.503949
1063,2563 47th Ave,San Francisco,CA,94116,995000,2,1.0,878.0,3049.0,37.738682,-122.505806
1064,2621 24th Ave,San Francisco,CA,94116,1149500,2,1.0,1160.0,3049.0,37.738588,-122.481081
1065,1845 Pacheco St,San Francisco,CA,94116,1298888,3,2.0,1951.0,2060.0,37.750151,-122.480294
