Address,City,State,Zip,Price,Beds,Baths,Home_size,Lot_size,Latitude,Longitude,SF_time,PA_time,School_score,Commute_time,Price difference
1909 Hillman Ave,Belmont,CA,94002,1595000,4,2,2220,3999,37.521972,-122.294079,63,33,77.9,33,-414165.4879
641 Waltermire St,Belmont,CA,94002,899999,2,1,840,4234,37.520233,-122.273144,63,33,77.9,33,-480431.7721
2706 Sequoia Way,Belmont,CA,94002,1588000,3,2,1860,5210,37.520192,-122.309437,63,33,77.9,33,-291397.5705
1568 Winding Way,Belmont,CA,94002,1999000,4,3.5,2900,16117.2,37.52428,-122.291241,63,33,77.9,33,-684431.8382
1440 5th Ave,Belmont,CA,94002,1249950,2,1,1170,5001,37.516227,-122.272763,63,33,77.9,33,-305353.6637
1527 Ridge Rd,Belmont,CA,94002,1485000,3,2,1220,5502,37.522964,-122.290578,63,33,77.9,33,-108262.5215
1249 North Rd,Belmont,CA,94002,1995000,4,3.5,2720,9601,37.523886,-122.286862,63,33,77.9,33,-411389.9523
685 South Rd,Belmont,CA,94002,1988000,3,3,2610,11325.6,37.520637,-122.281695,63,33,77.9,33,-419091.8232
2501 Lincoln Ave,Belmont,CA,94002,1598000,3,2,1508,6100,37.518087,-122.306904,63,33,77.9,33,-145752.374
1569 Sixth Ave,Belmont,CA,94002,2198000,5,3,3160,11761.2,37.514502,-122.270684,63,33,77.9,33,-475441.3225
2021 Lyon Ave,Belmont,CA,94002,1695000,3,2.5,1540,3951,37.522995,-122.298666,63,33,77.9,33,525.394101
600 Kingston Rd,Belmont,CA,94002,2700000,3,2,2080,13939.2,37.522085,-122.281924,63,33,77.9,33,459207.3873
2417 Hastings Dr,Belmont,CA,94002,1795000,3,2.5,2210,3938,37.505247,-122.296336,63,33,77.9,33,-207741.498
213 Visitacion Ave,Brisbane,CA,94005,698000,1,1,850,2614,37.682818,-122.403095,37,63,60.4,37,-424590.3413
260 Monterey St,Brisbane,CA,94005,1438000,4,2.5,2380,3485,37.683129,-122.401917,37,63,60.4,37,-415374.8619
478 Kings Rd,Brisbane,CA,94005,1588000,3,3,1790,8712,37.678221,-122.400926,37,63,60.4,37,-149289.0774
271 Humboldt Rd,Brisbane,CA,94005,1498000,3,2.5,2200,5663,37.683422,-122.406506,37,63,60.4,37,-337336.2268
1812 Easton Dr,Burlingame,CA,94010,2670000,4,4.5,2790,5449,37.583493,-122.371662,55,50,80.1,50,576047.5599
413 Hillsborough Blvd,Hillsborough,CA,94010,4995000,4,3.5,3126,15246,37.561393,-122.35351,55,50,80.1,50,2454403.751
1277 Balboa Ave,Burlingame,CA,94010,3300000,4,4,2698,5001,37.584879,-122.369784,55,50,80.1,50,1261775.999
1431 DE Soto Ave,Burlingame,CA,94010,1995000,3,2,1400,5458,37.583335,-122.377653,55,50,80.1,50,541121.673
1540 Los Montes Dr,Burlingame,CA,94010,2375000,4,2.5,2540,10454.4,37.575551,-122.395664,55,50,80.1,50,247104.413
1441 Alvarado Ave,Burlingame,CA,94010,2895000,3,2.5,2730,9130,37.579399,-122.381681,55,50,80.1,50,719029.9575
28 Bloomfield Rd,Burlingame,CA,94010,4498000,5,4.5,3586,7850,37.580125,-122.337185,55,50,80.1,50,1965821.355
1525 Los Montes Dr,Burlingame,CA,94010,2968000,5,4.5,3200,8581,37.57443,-122.395533,55,50,80.1,50,591866.2645
2831 Adeline Dr,Burlingame,CA,94010,2088000,3,2,1750,9374,37.58049,-122.384883,55,50,80.1,50,356225.4158
1130 Southdown Rd,Hillsborough,CA,94010,2795000,3,2,2140,14810.4,37.549525,-122.353203,55,50,80.1,50,721608.7978
2714 Easton Dr,Burlingame,CA,94010,4450000,5,3.5,3983,7436,37.578216,-122.378424,55,50,80.1,50,1747265.449
1308 Castillo Ave,Burlingame,CA,94010,4685000,4,3,3010,5998,37.580134,-122.376543,55,50,80.1,50,2473343.529
1541 Burlingame Ave,Burlingame,CA,94010,4895000,4,3.5,3524,8533,37.57489,-122.35068,55,50,80.1,50,2371036.574
1369 DE Soto Ave,Burlingame,CA,94010,2788000,4,3,2590,5998,37.582089,-122.375657,55,50,80.1,50,769828.2305
2116 Broadway,Burlingame,CA,94010,2380000,3,2,2040,5998,37.579594,-122.370662,55,50,80.1,50,615201.0539
835 Longview Rd,Hillsborough,CA,94010,3490000,4,3,2940,19166.4,37.553235,-122.34377,55,50,80.1,50,918299.7498
2435 Summit Dr,Hillsborough,CA,94010,4398000,5,4,3870,16552.8,37.574844,-122.378382,55,50,80.1,50,1475729.395
205 Glen Aulin Ln,Burlingame,CA,94010,4680000,5,4.5,4543,10018.8,37.571608,-122.388525,55,50,80.1,50,1642343.334
147 Oakridge Dr,Daly City,CA,94014,898000,3,2,1270,6098,37.706337,-122.428012,43,68,32.8,43,-188432.1715
488 Willits St,Daly City,CA,94014,999950,4,2,1668,3001,37.696958,-122.468144,43,68,32.8,43,-177571.2498
1003 Ocean View Ave,Daly City,CA,94014,1089000,3,2.5,2304,1647,37.702138,-122.459186,43,68,32.8,43,-341176.2369
410 Ford St,Daly City,CA,94014,1188000,3,3,1770,2500,37.693655,-122.458581,43,68,32.8,43,-21585.42681
267 Abbot Ave,Daly City,CA,94014,799888,2,1,1030,8002,37.694966,-122.460759,43,68,32.8,43,-232702.3091
516 Southhill Blvd,Daly City,CA,94014,899000,3,2,1190,4591,37.705111,-122.439669,43,68,32.8,43,-105683.887
116 Woodrow St,Daly City,CA,94014,575000,2,1,770,3049,37.702763,-122.467878,43,68,32.8,43,-190262.4676
2 Rosebud Ct,Daly City,CA,94014,1075000,3,3,1573,1307,37.686842,-122.462254,43,68,32.8,43,-8292.002116
357 Winchester St,Daly City,CA,94014,775000,3,2,1795,2614,37.705638,-122.454465,43,68,32.8,43,-449498.4731
41 Frankfort St,Daly City,CA,94014,799000,3,2,1390,2178,37.706855,-122.442132,43,68,32.8,43,-225935.3474
271 Irvington St,Daly City,CA,94014,885000,4,2,1060,2500,37.706816,-122.455574,43,68,32.8,43,2495.854262
67 Royce Way,Daly City,CA,94014,1049000,3,2,1190,2300,37.691921,-122.454471,43,68,32.8,43,112565.8021
169 Parkview Ave,Daly City,CA,94014,1100000,3,2,2045,2614,37.70106,-122.465611,43,68,32.8,43,-239667.9383
333 Peoria St,Daly City,CA,94014,699000,4,1,1130,4792,37.703009,-122.457669,43,68,32.8,43,-284031.0755
143 Hillcrest Dr,Daly City,CA,94014,998000,5,3,1610,2500,37.706198,-122.465006,43,68,32.8,43,-137876.9691
995 Ocean View Ave,Daly City,CA,94014,1349000,3,2.5,2265,1721,37.701838,-122.459199,43,68,32.8,43,-65414.28611
35-39 Mission Cir,Daly City,CA,94014,1100000,3,2,1922,2675,37.706438,-122.462072,43,68,32.8,43,-184821.7727
339 Frankfort St,Daly City,CA,94014,1150000,5,3,1990,3001,37.704563,-122.448722,43,68,32.8,43,-175859.5209
1 Martin,Daly City,CA,94014,1521995,5,4.5,2914,2448,37.700645,-122.413588,43,68,32.8,43,-213056.8013
149 Abbot Ave,Daly City,CA,94014,845000,3,2,1160,2614,37.696804,-122.460812,43,68,32.8,43,-86968.03157
225 Baltimore Way,Daly City,CA,94014,928000,2,1,1320,3485,37.707794,-122.434992,43,68,32.8,43,-103623.8831
308 2nd Ave,Daly City,CA,94014,950000,3,2,1550,2178,37.687614,-122.463408,43,68,32.8,43,-148643.8051
280 E Market St,Daly City,CA,94014,1000000,3,3,1300,1742,37.689529,-122.462458,43,68,32.8,43,29514.25211
1004 Ocean View Ave,Daly City,CA,94014,1264039,4,3.5,2209,1400,37.702278,-122.459486,43,68,32.8,43,-115014.6239
1 Martin St,Daly City,CA,94014,1521995,5,4.5,2917,2450,37.700645,-122.413588,43,68,32.8,43,-214498.4156
27 Westline Dr,Daly City,CA,94015,1095000,4,2,2250,3302,37.665708,-122.491148,39,60,50.4,39,-574689.6655
54 Pinehaven Dr,Daly City,CA,94015,998888,3,1.5,1330,3798,37.694335,-122.489783,39,60,50.4,39,-261754.0467
263 St Catherine Dr,Daly City,CA,94015,1088000,3,2.5,1720,3485,37.677777,-122.481378,39,60,50.4,39,-342982.0332
141 Ashland Dr,Daly City,CA,94015,988000,3,1,1300,3202,37.697797,-122.491506,39,60,50.4,39,-241066.663
103 Village Ln,Daly City,CA,94015,1050000,2,1,1440,4792,37.693917,-122.474867,39,60,50.4,39,-290928.2181
142 Belcrest Ave,Daly City,CA,94015,698000,3,1,107,3300,37.664659,-122.490835,39,60,50.4,39,15602.57058
144 Westmoor Ave,Daly City,CA,94015,979888,3,2,1410,3485,37.683469,-122.485283,39,60,50.4,39,-308283.8964
119 Lycett Cir,Daly City,CA,94015,999888,4,3,1760,3920,37.655603,-122.465311,39,60,50.4,39,-462479.9494
575 Verducci Dr,Daly City,CA,94015,995000,4,3,1790,3049,37.650607,-122.462161,39,60,50.4,39,-455240.8914
144 Mirada Dr,Daly City,CA,94015,1390000,5,4,1995,3485,37.683174,-122.476037,39,60,50.4,39,-167668.4449
1039 87th St,Daly City,CA,94015,998000,4,1,1620,3402,37.692624,-122.489984,39,60,50.4,39,-384441.6482
19 Fairmont Dr,Daly City,CA,94015,988888,3,2,1430,3402,37.700386,-122.492919,39,60,50.4,39,-306024.8547
824 Ellis Dr,Daly City,CA,94015,849000,2,1,910,5227,37.695659,-122.485014,39,60,50.4,39,-260727.7537
98 Huntington Dr,Daly City,CA,94015,990000,3,2,1160,3485,37.68119,-122.485308,39,60,50.4,39,-183002.4312
63 Montebello Dr,Daly City,CA,94015,948888,3,1,1060,3960,37.665504,-122.488172,39,60,50.4,39,-192197.0609
227 Del Prado Dr,Daly City,CA,94015,999000,4,3,1640,3485,37.6789,-122.47962,39,60,50.4,39,-395127.8044
78 Norwood Ave,Daly City,CA,94015,989000,4,1,1030,4487,37.657944,-122.464641,39,60,50.4,39,-153964.2389
620 Larchmont Dr,Daly City,CA,94015,1198000,4,2,1454,7261,37.68751,-122.483151,39,60,50.4,39,-222930.0794
60 Westdale Ave,Daly City,CA,94015,895000,2,1,1220,3485,37.706551,-122.478206,39,60,50.4,39,-305643.1029
35 Wembley Dr,Daly City,CA,94015,923000,3,2,1330,3485,37.662346,-122.470023,39,60,50.4,39,-328317.6675
196 Castillejo Dr,Daly City,CA,94015,1150000,4,3,1520,3428,37.669478,-122.481289,39,60,50.4,39,-187148.4112
1096 S Mayfair Ave,Daly City,CA,94015,1088000,4,2,1611,3485,37.692919,-122.493928,39,60,50.4,39,-292768.1464
80 Beachside Ct,Daly City,CA,94015,1095000,3,2,1250,3920,37.662663,-122.490612,39,60,50.4,39,-132422.2404
265 Westridge Ave,Daly City,CA,94015,1160000,5,3,1650,3485,37.689245,-122.494006,39,60,50.4,39,-238734.583
32 Fairlawn Ct,Daly City,CA,94015,1095000,4,3,1619,3485,37.696408,-122.485985,39,60,50.4,39,-289453.5693
50 Parkwood Dr,Daly City,CA,94015,1250000,3,3,2010,3498,37.701005,-122.479466,39,60,50.4,39,-314965.8873
47 Fairmont Dr,Daly City,CA,94015,1188000,3,2,1910,3485,37.700999,-122.493205,39,60,50.4,39,-330510.8267
1321 S Mayfair Ave,Daly City,CA,94015,1180000,4,2,1759,3485,37.688107,-122.488881,39,60,50.4,39,-268948.4698
82 Nelson Ct,Daly City,CA,94015,1049000,4,2,1470,3485,37.653224,-122.466714,39,60,50.4,39,-266812.568
301 Myrtle St,Half Moon Bay,CA,94019,949950,2,2,1160,7505,37.458826,-122.439504,60,63,44.6,60,6857.304254
2065 Touraine Ln,Half Moon Bay,CA,94019,1150000,3,2,1790,7292,37.486464,-122.443465,60,63,44.6,60,-76974.40367
380 Burning Tree Ct,Half Moon Bay,CA,94019,1615000,4,2.5,3470,5502,37.433363,-122.42971,60,63,44.6,60,-332588.4852
630 Miramar Dr,Half Moon Bay,CA,94019,2390000,5,4,4140,9919,37.495994,-122.450164,60,63,44.6,60,2173.377418
516 Highland Ave,Half Moon Bay,CA,94019,1475000,4,3,3083,8799,37.472595,-122.434001,60,63,44.6,60,-392524.9332
221 Correas St,Half Moon Bay,CA,94019,2495000,5,4,3722,10018.8,37.46306,-122.441104,60,63,44.6,60,296763.6464
401 Antoinette Ln,Half Moon Bay,CA,94019,1279000,3,2,1460,5998,37.475874,-122.444865,60,63,44.6,60,242598.0017
320 Coronado Ave,Half Moon Bay,CA,94019,1525000,3,3,2250,8799,37.49724,-122.459268,60,63,44.6,60,41219.72476
437 Seymour St,Half Moon Bay,CA,94019,2000000,4,4.5,3862,9875,37.453516,-122.434747,60,63,44.6,60,-258447.402
41 Turnberry Rd,Half Moon Bay,CA,94019,2000000,4,2.5,3924,7200,37.437978,-122.435308,60,63,44.6,60,-207320.2462
412 Magellan Ave,Half Moon Bay,CA,94019,1865000,4,3,3011,8799,37.498661,-122.458785,60,63,44.6,60,30643.87279
231 Shelter Cove Dr,El Granada,CA,94019,849000,2,1,1010,5502,37.5114,-122.487406,60,63,44.6,60,34679.05204
160 Turnberry Rd,Half Moon Bay,CA,94019,1769000,5,3,3266,7139,37.437393,-122.433425,60,63,44.6,60,-133377.0026
48 Harvard Ave,Half Moon Bay,CA,94019,575000,2,1,672,3498,37.503444,-122.492558,60,63,44.6,60,-23911.97202
217 Miramontes Ave,Half Moon Bay,CA,94019,1725000,4,2.5,3285,7405,37.464057,-122.441126,60,63,44.6,60,-194054.1148
655 Santiago Ave,Half Moon Bay,CA,94019,1795000,3,3.5,2180,4848,37.500373,-122.461959,60,63,44.6,60,461168.8432
731 El Granada Blvd,El Granada,CA,94019,2198000,4,3.5,4424,8799,37.514695,-122.463044,60,63,44.6,60,-287293.9443
4 Pinehurst Ln,Half Moon Bay,CA,94019,1459000,3,3,2374,4622,37.436191,-122.433442,60,63,44.6,60,42529.95706
688 Silver Ave,Half Moon Bay,CA,94019,1395000,3,2.5,2210,8712,37.476435,-122.430963,60,63,44.6,60,-67761.40047
251 Granelli Ave,Half Moon Bay,CA,94019,1695000,4,2.5,2940,5502,37.459575,-122.439908,60,63,44.6,60,-8429.219043
2029 Bordeaux Ln,Half Moon Bay,CA,94019,1299000,5,3,2710,8120,37.485478,-122.444735,60,63,44.6,60,-376464.4443
14 Pinehurst Ln,Half Moon Bay,CA,94019,1465000,3,2.5,2715,4386,37.436079,-122.432517,60,63,44.6,60,-101530.6711
324 Garcia Ave,Half Moon Bay,CA,94019,1600000,4,2,2098,8098,37.460368,-122.439957,60,63,44.6,60,207125.7941
262 San Clemente Rd,El Granada,CA,94019,1195000,3,2,1480,9901,37.507318,-122.465276,60,63,44.6,60,33112.71307
400 Redondo Beach Rd,Half Moon Bay,CA,94019,1349000,3,2,1122,7871,37.440137,-122.433238,60,63,44.6,60,412509.7953
28 Pinehurst Ln,Half Moon Bay,CA,94019,1575000,3,2.5,2300,4957,37.435741,-122.4315,60,63,44.6,60,182640.3519
2350 Winged Foot Rd,Half Moon Bay,CA,94019,1675000,4,3,2940,8207,37.431633,-122.432273,60,63,44.6,60,-109012.1126
409 Saint Joseph Ave,Half Moon Bay,CA,94019,1299888,4,2,2060,5998,37.475678,-122.44369,60,63,44.6,60,-12920.71467
127 Carnoustie Dr,Half Moon Bay,CA,94019,2795000,4,4,4214,10018.8,37.439159,-122.436809,60,63,44.6,60,370110.1389
123 Ocean Ave,Half Moon Bay,CA,94019,2300000,1,2,2590,2500,37.463629,-122.441864,60,63,44.6,60,847238.6593
574 Kelly St,Half Moon Bay,CA,94019,1290000,2,2.5,1676,2474,37.463569,-122.430962,60,63,44.6,60,259072.7731
13940 Pescadero Rd,La Honda,CA,94020,598000,2,1,700,19166.4,37.298959,-122.264164,88,50,48.7,50,-659131.1371
706 Orange Ave,Los Altos,CA,94022,3550000,3,2.5,1478,6599,37.370507,-122.114623,65,21,83.4,21,1585717.941
212 Del Monte Ave,Los Altos,CA,94022,2098000,2,1,1055,6077,37.397408,-122.118699,65,21,83.4,21,344135.2381
370 Juanita Way,Los Altos,CA,94022,3488000,5,3,2953,13068,37.391149,-122.12303,65,21,83.4,21,651504.33
640 Palm Ave,Los Altos,CA,94022,2998000,3,3,2099,7466,37.371525,-122.114607,65,21,83.4,21,721808.7571
44 Mount Hamilton Ave,Los Altos,CA,94022,3888000,4,3,3045,8699,37.383019,-122.115226,65,21,83.4,21,1139276.001
308 Blue Oak Ln,Los Altos,CA,94022,3450000,4,3,3190,18295.2,37.385985,-122.124406,65,21,83.4,21,348603.5656
169 E Portola Ave,Los Altos,CA,94022,3388000,5,3,2660,9714,37.39612,-122.110245,65,21,83.4,21,786399.7731
241 N Clark Ave,Los Altos,CA,94022,4298000,4,3.5,3080,11761.2,37.385766,-122.100803,65,21,83.4,21,1441928.27
1320 Harwalt Dr,Los Altos,CA,94024,2698000,4,2.5,2233,10890,37.358684,-122.065514,70,29,88.4,29,326384.8655
606 Paco Dr,Los Altos,CA,94024,2998000,3,2,1185,15246,37.37613,-122.099897,70,29,88.4,29,979408.504
510 Sequoia Dr,Los Altos,CA,94024,2798000,2,1.5,1758,18730.8,37.339488,-122.074242,70,29,88.4,29,411626.6823
1161 Payne Dr,Los Altos,CA,94024,3988000,5,3,4223,13068,37.35604,-122.082259,70,29,88.4,29,634752.5431
931 Matts Ct,Los Altos,CA,94024,2199988,3,2.5,2164,11761.2,37.366321,-122.114367,70,29,88.4,29,-165793.714
1150 Grant Rd,Los Altos,CA,94024,1998000,3,2,1329,11325.6,37.362679,-122.078107,70,29,88.4,29,29860.97563
1416 Fallen Leaf Ln,Los Altos,CA,94024,2798000,4,2,1850,10890,37.356203,-122.064982,70,29,88.4,29,602824.4862
1347 Morton Ave,Los Altos,CA,94024,2758000,3,2,2018,10890,37.348457,-122.076273,70,29,88.4,29,485430.6056
1564 Vineyard Dr,Los Altos,CA,94024,2595000,3,3,2049,10890,37.336186,-122.070679,70,29,88.4,29,308149.5919
1909 Farndon Ave,Los Altos,CA,94024,2599000,3,2,1578,9736,37.344417,-122.066784,70,29,88.4,29,563506.9268
1849 Grant Park Ln,Los Altos,CA,94024,3488888,4,3.5,3260,11325.6,37.346136,-122.069568,70,29,88.4,29,631180.0267
1686 Dalehurst Ave,Los Altos,CA,94024,2298000,3,2,1243,14374.8,37.347829,-122.071482,70,29,88.4,29,278642.54
1060 Golden Way,Los Altos,CA,94024,2995000,3,2,2034,10890,37.364015,-122.091239,70,29,88.4,29,715059.7598
1739 Joel Way,Los Altos,CA,94024,2598888,5,2.5,2490,11761.2,37.359404,-122.063753,70,29,88.4,29,82925.30345
1495 Cedar Pl,Los Altos,CA,94024,2685000,4,2,2132,10890,37.335254,-122.071816,70,29,88.4,29,359913.3295
10450 Creston Dr,Los Altos,CA,94024,2988000,4,2.5,3033,14810.4,37.329238,-122.060093,70,29,88.4,29,131052.4935
2275 Deodara Dr,Los Altos,CA,94024,2675000,3,2.5,1669,12196.8,37.335354,-122.068815,70,29,88.4,29,524277.1511
1034 Golden Way,Los Altos,CA,94024,2999888,3,2,1837,10890,37.364439,-122.091239,70,29,88.4,29,810701.2984
816 S Springer Rd,Los Altos,CA,94024,2975000,5,3,2381,10018.8,37.368442,-122.096408,70,29,88.4,29,561157.894
930 Hayman Pl,Los Altos,CA,94024,3350000,4,3.5,2615,11761.2,37.366299,-122.083032,70,29,88.4,29,776452.5709
1152 Miguel Ave,Los Altos,CA,94024,2450000,3,2,1546,9518,37.34968,-122.082051,70,29,88.4,29,435742.9144
1440 Highland View Ct,Los Altos,CA,94024,3398000,4,3,2818,13939.2,37.345906,-122.081791,70,29,88.4,29,666051.5854
300 Cuesta Dr,Los Altos,CA,94024,3800000,5,4.5,3395,13068,37.373804,-122.107421,70,29,88.4,29,828193.8117
1235 Nightingale Ct,Los Altos,CA,94024,4288000,5,3.5,3567,9574,37.350118,-122.079686,70,29,88.4,29,1341044.698
1653 Christina Dr,Los Altos,CA,94024,2865000,4,2,2076,10454.4,37.350831,-122.064171,70,29,88.4,29,578687.9656
1320 Harwalt Dr,Los Altos,CA,94024,2698000,4,2.5,2233,10890,37.358684,-122.065514,70,29,88.4,29,326384.8655
606 Paco Dr,Los Altos,CA,94024,2998000,3,2,1185,15246,37.37613,-122.099897,70,29,88.4,29,979408.504
1161 Payne Dr,Los Altos,CA,94024,3988000,5,3,4223,13068,37.35604,-122.082259,70,29,88.4,29,634752.5431
510 Sequoia Dr,Los Altos,CA,94024,2798000,2,1.5,1758,18730.8,37.339488,-122.074242,70,29,88.4,29,411626.6823
1150 Grant Rd,Los Altos,CA,94024,1998000,3,2,1329,11325.6,37.362679,-122.078107,70,29,88.4,29,29860.97563
1416 Fallen Leaf Ln,Los Altos,CA,94024,2798000,4,2,1850,10890,37.356203,-122.064982,70,29,88.4,29,602824.4862
1347 Morton Ave,Los Altos,CA,94024,2758000,3,2,2018,10890,37.348457,-122.076273,70,29,88.4,29,485430.6056
931 Matts Ct,Los Altos,CA,94024,2199988,3,2.5,2164,11761.2,37.366321,-122.114367,70,29,88.4,29,-165793.714
1564 Vineyard Dr,Los Altos,CA,94024,2595000,3,3,2049,10890,37.336186,-122.070679,70,29,88.4,29,308149.5919
1909 Farndon Ave,Los Altos,CA,94024,2599000,3,2,1578,9736,37.344417,-122.066784,70,29,88.4,29,563506.9268
1495 Cedar Pl,Los Altos,CA,94024,2685000,4,2,2132,10890,37.335254,-122.071816,70,29,88.4,29,359913.3295
1060 Golden Way,Los Altos,CA,94024,2995000,3,2,2034,10890,37.364015,-122.091239,70,29,88.4,29,715059.7598
1686 Dalehurst Ave,Los Altos,CA,94024,2298000,3,2,1243,14374.8,37.347829,-122.071482,70,29,88.4,29,278642.54
1849 Grant Park Ln,Los Altos,CA,94024,3488888,4,3.5,3260,11325.6,37.346136,-122.069568,70,29,88.4,29,631180.0267
1034 Golden Way,Los Altos,CA,94024,2999888,3,2,1837,10890,37.364439,-122.091239,70,29,88.4,29,810701.2984
1653 Christina Dr,Los Altos,CA,94024,2865000,4,2,2076,10454.4,37.350831,-122.064171,70,29,88.4,29,578687.9656
1152 Miguel Ave,Los Altos,CA,94024,2450000,3,2,1546,9518,37.34968,-122.082051,70,29,88.4,29,435742.9144
300 Cuesta Dr,Los Altos,CA,94024,3800000,5,4.5,3395,13068,37.373804,-122.107421,70,29,88.4,29,828193.8117
930 Hayman Pl,Los Altos,CA,94024,3350000,4,3.5,2615,11761.2,37.366299,-122.083032,70,29,88.4,29,776452.5709
1739 Joel Way,Los Altos,CA,94024,2598888,5,2.5,2490,11761.2,37.359404,-122.063753,70,29,88.4,29,82925.30345
2275 Deodara Dr,Los Altos,CA,94024,2675000,3,2.5,1669,12196.8,37.335354,-122.068815,70,29,88.4,29,524277.1511
1235 Nightingale Ct,Los Altos,CA,94024,4288000,5,3.5,3567,9574,37.350118,-122.079686,70,29,88.4,29,1341044.698
816 S Springer Rd,Los Altos,CA,94024,2975000,5,3,2381,10018.8,37.368442,-122.096408,70,29,88.4,29,561157.894
10450 Creston Dr,Los Altos,CA,94024,2988000,4,2.5,3033,14810.4,37.329238,-122.060093,70,29,88.4,29,131052.4935
1440 Highland View Ct,Los Altos,CA,94024,3398000,4,3,2818,13939.2,37.345906,-122.081791,70,29,88.4,29,666051.5854
127 Elliott Dr,Menlo Park,CA,94025,4498000,5,4,3078,9345,37.460695,-122.150098,70,14,51.9,14,1899227.409
556 Placitas Ave,Menlo Park,CA,94025,3695000,5,4,3650,10890,37.473579,-122.195253,70,14,51.9,14,786693.5835
670 Magnolia St,Menlo Park,CA,94025,4850000,5,4.5,3035,10018.8,37.437714,-122.190285,70,14,51.9,14,2250963.82
304 Ivy Dr,Menlo Park,CA,94025,1199000,4,2,1437,5750,37.475555,-122.163528,70,14,51.9,14,-536703.9179
524 9th Ave,Menlo Park,CA,94025,1725000,3,3,1610,5634,37.473679,-122.19881,70,14,51.9,14,-86945.50731
1127 Madera Ave,Menlo Park,CA,94025,1350000,3,2,1540,5750,37.472069,-122.157715,70,14,51.9,14,-433153.7375
614 10th Ave,Menlo Park,CA,94025,1295000,3,1,1100,5350,37.474852,-122.196973,70,14,51.9,14,-273539.3393
1145 Almanor Ave,Menlo Park,CA,94025,1100000,3,2,1220,5290,37.474816,-122.162458,70,14,51.9,14,-522033.2617
653 San Benito Ave,Menlo Park,CA,94025,1395000,3,2,1250,3959,37.474636,-122.194588,70,14,51.9,14,-201202.6432
1110 Madera Ave,Menlo Park,CA,94025,998000,3,1,1040,6000,37.471376,-122.157408,70,14,51.9,14,-562262.3944
1323 Sevier Ave,Menlo Park,CA,94025,998000,3,1,1130,5750,37.477233,-122.156122,70,14,51.9,14,-596275.8147
2111 Manzanita Ave,Menlo Park,CA,94025,3800000,4,4,2710,6000,37.435104,-122.209544,70,14,51.9,14,1470405.578
575 6th Ave,Menlo Park,CA,94025,1349000,3,1,1200,4544,37.475663,-122.201597,70,14,51.9,14,-241596.1042
315 Haight St,Menlo Park,CA,94025,1498000,2,1,1140,6500,37.467015,-122.154387,70,14,51.9,14,-123225.3549
985 Siskiyou Dr,Menlo Park,CA,94025,3800000,3,2.5,2540,13939.2,37.422763,-122.212093,70,14,51.9,14,1312209.277
2316 Blueridge Ave,Menlo Park,CA,94025,3085000,3,2.5,2045,11325.6,37.425106,-122.202317,70,14,51.9,14,903104.874
2044 Ashton Ave,Menlo Park,CA,94025,2698000,4,2,1925,6000,37.43377,-122.202707,70,14,51.9,14,730037.6989
30 Sharon Ct,Menlo Park,CA,94025,2950000,3,2,1620,11325.6,37.42868,-122.199345,70,14,51.9,14,963892.9647
401 Oak Ct,Menlo Park,CA,94025,3499000,4,3,2320,16117.2,37.458141,-122.148008,70,14,51.9,14,1047675.027
3018 Alameda De Las Pulgas,Menlo Park,CA,94025,1899999,3,2,1320,6192,37.436419,-122.211727,70,14,51.9,14,205027.0576
520 Barron St,Menlo Park,CA,94025,2439000,3,2.5,1580,2841,37.453898,-122.174341,70,14,51.9,14,724079.2728
626 Partridge Ave Unit 2,Menlo Park,CA,94025,2495000,3,2.5,1883,4740,37.44875,-122.175843,70,14,51.9,14,583922.0086
151 Elliott Dr,Menlo Park,CA,94025,2388000,3,2,1562,6200,37.460351,-122.150245,70,14,51.9,14,581305.6926
204 Chester St,Menlo Park,CA,94025,1688000,2,1,1090,6216,37.46552,-122.15254,70,14,51.9,14,98268.99723
2071 Valparaiso Ave,Menlo Park,CA,94025,1995000,3,2.5,2000,6000,37.434284,-122.205255,70,14,51.9,14,-7513.140634
501 Laurel Ave,Menlo Park,CA,94025,3995000,4,3,2650,6625,37.460677,-122.155035,70,14,51.9,14,1674427.282
655 Gilbert Ave,Menlo Park,CA,94025,3988888,4,3.5,2776,8925,37.460212,-122.16183,70,14,51.9,14,1541752.069
719 17th Ave,Menlo Park,CA,94025,2100000,4,3,2060,5084,37.474304,-122.190531,70,14,51.9,14,97134.14725
651 18th Ave,Menlo Park,CA,94025,1498000,3,2,1440,5350,37.472913,-122.190411,70,14,51.9,14,-227169.8119
161 Willow Rd,Menlo Park,CA,94025,3449000,5,4,2766,8660,37.456006,-122.163564,70,14,51.9,14,1014365.29
1040 Ringwood Ave,Menlo Park,CA,94025,1988000,4,2,1480,6000,37.472928,-122.166325,70,14,51.9,14,225039.3469
1969 Palo Alto Way,Menlo Park,CA,94025,2698000,3,1,1430,6550,37.428478,-122.192339,70,14,51.9,14,941688.5481
440 9th Ave,Menlo Park,CA,94025,2150000,3,2,1730,9300,37.471271,-122.199915,70,14,51.9,14,173561.7306
671 Live Oak Ave,Menlo Park,CA,94025,2298888,3,1,980,5650,37.451295,-122.181096,70,14,51.9,14,776692.8993
1175 Osborn Ave,Atherton,CA,94027,2149888,3,3,1705,7819,37.454262,-122.218999,65,20,71.4,20,138542.5725
48 Watkins Ave,Atherton,CA,94027,2488000,3,2,1842,6551,37.460703,-122.194582,65,20,71.4,20,451315.8679
30 Southgate St,Atherton,CA,94027,3050000,3,2,2018,6750,37.461696,-122.206366,65,20,71.4,20,926308.285
1175 Osborn Ave,Atherton,CA,94027,2149888,3,3,1705,7820,37.454262,-122.218999,65,20,71.4,20,138512.7822
1061 Los Trancos Rd,Portola Valley,CA,94028,899000,2,1,780,14810.4,37.349838,-122.198658,65,28,87.5,28,-926103.4794
4 Russell Ave,Portola Valley,CA,94028,1499500,3,1,1290,7802,37.384216,-122.237333,65,28,87.5,28,-351766.5076
1019 Los Trancos Rd,Portola Valley,CA,94028,1595000,3,1.5,1180,9361,37.350174,-122.197759,65,28,87.5,28,-252035.0968
116 Russell Ave,Portola Valley,CA,94028,1895000,3,2,1821,5998,37.384055,-122.240219,65,28,87.5,28,-147144.6624
260 S Castanya Way,Portola Valley,CA,94028,2525000,3,2,1652,8799,37.397758,-122.195078,65,28,87.5,28,477267.129
228 Canyon Dr,Portola Valley,CA,94028,1999000,3,2,1410,10018.8,37.371186,-122.212051,65,28,87.5,28,26412.90381
131 Gabarda Way,Portola Valley,CA,94028,2495000,3,2,1740,8198,37.399129,-122.196292,65,28,87.5,28,424631.4769
805 LA Mesa Dr,Portola Valley,CA,94028,2995000,3,2.5,2490,13503.6,37.396654,-122.204324,65,28,87.5,28,421067.4067
2 Portola Green Cir,Portola Valley,CA,94028,2795000,4,2,2330,10018.8,37.373284,-122.213472,65,28,87.5,28,398589.272
1236 Los Trancos Rd,Portola Valley,CA,94028,4495000,5,3.5,3394,14810.4,37.346393,-122.198331,65,28,87.5,28,1465684.593
1061 Los Trancos Rd,Portola Valley,CA,94028,899000,2,1,780,14810.4,37.349838,-122.198658,65,28,87.5,28,-926103.4794
260 S Castanya Way,Portola Valley,CA,94028,2525000,3,2,1652,8800,37.397758,-122.195078,65,28,87.5,28,477237.3387
4 Russell Ave,Portola Valley,CA,94028,1499500,3,1,1290,7800,37.384216,-122.237333,65,28,87.5,28,-351706.9269
1019 Los Trancos Rd,Portola Valley,CA,94028,1595000,3,1.5,1180,9360,37.350174,-122.197759,65,28,87.5,28,-252005.3064
131 Gabarda Way,Portola Valley,CA,94028,2450000,3,2,1740,8200,37.399129,-122.196292,65,28,87.5,28,379571.8962
228 Canyon Dr,Portola Valley,CA,94028,1999000,3,2,1410,10018.8,37.371186,-122.212051,65,28,87.5,28,26412.90381
116 Russell Ave,Portola Valley,CA,94028,1895000,3,2,1821,6000,37.384055,-122.240219,65,28,87.5,28,-147204.2431
2 Portola Green Cir,Portola Valley,CA,94028,2795000,4,2,2330,10018.8,37.373284,-122.213472,65,28,87.5,28,398589.272
412 Juanita Ave,Millbrae,CA,94030,1895000,3,2,1250,12196.8,37.610712,-122.410566,40,48,69.6,40,262342.6423
14 Cypress Ct,Millbrae,CA,94030,1498000,3,2,1710,5850,37.606228,-122.403165,40,48,69.6,40,-157495.7877
15 Evergreen Ct,Millbrae,CA,94030,1688000,3,2,1970,6020,37.599643,-122.414054,40,48,69.6,40,-92336.39079
870 Robin Ln,Millbrae,CA,94030,1598000,4,2,1890,5131,37.606071,-122.421031,40,48,69.6,40,-118998.5418
835 Murchison Dr,Millbrae,CA,94030,2799000,4,3.5,3100,8738,37.591311,-122.392591,40,48,69.6,40,417127.4586
1160 Millbrae Ave,Millbrae,CA,94030,1988888,3,2.5,2510,8999,37.592607,-122.401928,40,48,69.6,40,-128959.8847
526 Anita Ln,Millbrae,CA,94030,2100000,5,5.5,2030,5667,37.599511,-122.406852,40,48,69.6,40,302538.9307
33 Estates Dr,Millbrae,CA,94030,2599000,4,3,2418,7928,37.595231,-122.415071,40,48,69.6,40,555439.9421
890 Crestview Dr,Millbrae,CA,94030,1768000,4,2,1851,8712,37.596125,-122.416383,40,48,69.6,40,-37711.3444
1132 Millbrae Ave,Millbrae,CA,94030,2798000,5,3.5,3900,7405,37.593066,-122.400319,40,48,69.6,40,87295.70501
841 Clearfield Dr,Millbrae,CA,94030,2799000,4,4,3157,7405,37.596347,-122.409927,40,48,69.6,40,430579.3555
120 Del Centro St,Millbrae,CA,94030,1888888,4,3,2510,5663,37.590664,-122.410802,40,48,69.6,40,-129579.281
881 Morningside Dr,Millbrae,CA,94030,1848888,4,3,2710,5998,37.598222,-122.410147,40,48,69.6,40,-271694.62
1116 Elmwood Dr,Millbrae,CA,94030,1728000,4,3,1975,5323,37.604275,-122.417485,40,48,69.6,40,-33875.90697
44 Camino Alto,Millbrae,CA,94030,1630000,3,2,1970,5998,37.597055,-122.403827,40,48,69.6,40,-149681.0031
610 Hillcrest Blvd,Millbrae,CA,94030,1699000,2,2,2050,5663,37.597267,-122.397027,40,48,69.6,40,-107555.4651
95 Colorados Dr,Millbrae,CA,94030,1698000,3,2.5,1840,7148,37.593637,-122.408674,40,48,69.6,40,-56051.78238
898 Hillcrest Blvd,Millbrae,CA,94030,2150000,4,2.5,2267,5153,37.594838,-122.399681,40,48,69.6,40,258670.517
721 Taylor Blvd,Millbrae,CA,94030,1988000,3,2,2173,5685,37.597479,-122.398662,40,48,69.6,40,124125.7703
1179 Ridgewood Dr,Millbrae,CA,94030,1588000,3,2,1500,5641,37.60619,-122.417931,40,48,69.6,40,35472.74592
659 George St,Montara,CA,94037,1100000,3,2,1952,6251,37.541083,-122.505788,55,80,41.6,55,-214410.8509
586 6th St,Montara,CA,94037,1345000,4,2.5,2220,5001,37.539666,-122.5079,55,80,41.6,55,-55634.58155
741 Harte St,Montara,CA,94037,1165000,3,2,1800,6251,37.539128,-122.506211,55,80,41.6,55,-79387.8161
320 10th St,Montara,CA,94037,1175000,3,2,1580,8999,37.539169,-122.514878,55,80,41.6,55,-49902.56531
202 11th St,Montara,CA,94037,1978000,4,3,3087,8999,37.539011,-122.516387,55,80,41.6,55,58855.89867
659 George St,Montara,CA,94037,1100000,3,2,1952,6251,37.541083,-122.505788,55,80,41.6,55,-214410.8509
586 6th St,Montara,CA,94037,1345000,4,2.5,2220,5001,37.539666,-122.5079,55,80,41.6,55,-55634.58155
741 Harte St,Montara,CA,94037,1165000,3,2,1800,6251,37.539128,-122.506211,55,80,41.6,55,-79387.8161
320 10th St,Montara,CA,94037,1175000,3,2,1580,8999,37.539169,-122.514878,55,80,41.6,55,-49902.56531
202 11th St,Montara,CA,94037,1978000,4,3,3087,8999,37.539011,-122.516387,55,80,41.6,55,58855.89867
1325 Marilyn Pl,Mountain View,CA,94040,2988888,4,3,1824,12632.4,37.380563,-122.09459,75,25,65.2,25,905962.2853
835 Runningwood Cir,Mountain View,CA,94040,1898000,3,2,1801,5985,37.370538,-122.062891,75,25,65.2,25,23698.24089
1306 Lubich Dr,Mountain View,CA,94040,2550000,3,2.5,1722,8803,37.363427,-122.064278,75,25,65.2,25,628142.5889
479 Carmelita Dr,Mountain View,CA,94040,4388000,5,5.5,3899,10890,37.374894,-122.072451,75,25,65.2,25,1401074.428
142 College Ave,Mountain View,CA,94040,1899000,4,2,1519,5057,37.402939,-122.100122,75,25,65.2,25,182254.8413
1242 Kern Ct,Mountain View,CA,94040,2799000,5,3,2817,10454.4,37.365295,-122.065609,75,25,65.2,25,323504.5494
1355 Ernestine Ln,Mountain View,CA,94040,1988000,3,2,1218,5070,37.386068,-122.091392,75,25,65.2,25,409531.6028
1135 Blackfield Way,Mountain View,CA,94040,2999888,5,3.5,2595,6042,37.389698,-122.099176,75,25,65.2,25,758109.9696
13134 Franklin Ave,Mountain View,CA,94040,1800000,3,1,1182,10454.4,37.368611,-122.068036,75,25,65.2,25,77712.85162
1175 Solana Dr,Mountain View,CA,94040,2250000,3,2,1322,6599,37.389457,-122.10333,75,25,65.2,25,578071.662
100 Sleeper Ave,Mountain View,CA,94040,2890000,4,2.5,3047,9805,37.371758,-122.077524,75,25,65.2,25,327894.494
693 Lola Ln,Mountain View,CA,94040,2399000,3,2,1680,8224,37.375339,-122.082874,75,25,65.2,25,513739.671
2110 California St,Mountain View,CA,94040,1798000,4,2.5,1790,2814,37.39939,-122.100354,75,25,65.2,25,23230.89347
1349 Isabelle Ave,Mountain View,CA,94040,2698000,4,2.5,1942,10454.4,37.378404,-122.088832,75,25,65.2,25,625597.6775
1501 Lloyd Way,Mountain View,CA,94040,2475000,3,1.5,1364,5162,37.386735,-122.093471,75,25,65.2,25,826531.9231
1357 Villa St,Mountain View,CA,94041,1295000,2,1,960,3598,37.396018,-122.085299,80,25,66.5,25,-132464.2149
1242 Snow St,Mountain View,CA,94041,1499000,2,2,1112,3750,37.38959,-122.087646,80,25,66.5,25,-3015.382756
416 Palo Alto Ave,Mountain View,CA,94041,1900000,2,1,1104,5763,37.393768,-122.087591,80,25,66.5,25,341702.068
1960 San Ramon Ave,Mountain View,CA,94043,1470000,3,2.5,1196,2766,37.410039,-122.090173,78,15,64,15,-160541.0456
422 Whisman Ct,Mountain View,CA,94043,1650000,3,2.5,1584,2905,37.400334,-122.059403,78,15,64,15,-163424.914
910 San Marcos Cir,Mountain View,CA,94043,1929000,4,2,1576,5998,37.406874,-122.085036,78,15,64,15,27118.96001
317 Serra San Bruno,Mountain View,CA,94043,1698000,3,2.5,1715,4186,37.407225,-122.09472,78,15,64,15,-213935.1506
1601 Morgan St,Mountain View,CA,94043,1695000,3,2,1234,5929,37.411467,-122.081323,78,15,64,15,-47273.67757
760 Emily Dr,Mountain View,CA,94043,1399000,3,1,816,4700,37.404475,-122.066514,78,15,64,15,-114097.9931
139 Hamilton Ave,Mountain View,CA,94043,1899900,3,2,1280,5001,37.405613,-122.101333,78,15,64,15,164080.5845
306 Nita Ave,Mountain View,CA,94043,1750000,3,2,1140,5789,37.410246,-122.104781,78,15,64,15,55200.69016
1917 Colony St,Mountain View,CA,94043,2650000,2,1,1064,11325.6,37.415257,-122.08736,78,15,64,15,825274.9623
395 Winwood Ave,Pacifica,CA,94044,1298000,3,2,1980,6181,37.653931,-122.486393,43,72,57,43,-335825.1301
37 Alviso Ct,Pacifica,CA,94044,1200000,3,3,1750,8712,37.587573,-122.48922,43,72,57,43,-403268.595
417 Coral Ridge Dr,Pacifica,CA,94044,1188000,4,3.5,3058,3899,37.657291,-122.486835,43,72,57,43,-874454.2879
155 Gordon Way,Pacifica,CA,94044,799000,3,2.5,2080,5062,37.655579,-122.488165,43,72,57,43,-847557.5158
1083 Park Pacifica Ave,Pacifica,CA,94044,1099000,3,3,1492,6151,37.586549,-122.473827,43,72,57,43,-309120.6236
468 Donaldson Ave,Pacifica,CA,94044,920000,2,2,1670,5998,37.608733,-122.494089,43,72,57,43,-565563.3594
106 Calaveras Ave,Pacifica,CA,94044,1199000,4,3.5,1990,5624,37.611985,-122.473439,43,72,57,43,-422838.6844
812 Burns Ct,Pacifica,CA,94044,948888,3,2,1280,5663,37.619309,-122.483431,43,72,57,43,-347031.2269
348 Heathcliff Dr,Pacifica,CA,94044,1088000,3,3.5,2430,5001,37.651037,-122.475623,43,72,57,43,-717977.5558
211 Modoc Pl,Pacifica,CA,94044,975000,2,2,1130,9226,37.610405,-122.473107,43,72,57,43,-357960.5607
272 Gateway Dr,Pacifica,CA,94044,998000,4,2,1490,3899,37.662376,-122.47967,43,72,57,43,-342111.4023
1275 Escalero Ave,Pacifica,CA,94044,1095000,4,3,2092,5306,37.592045,-122.495771,43,72,57,43,-564354.4952
740 Serena Dr,Pacifica,CA,94044,995000,5,3,2050,8359,37.594985,-122.497122,43,72,57,43,-735955.96
423 Johnson Ave,Pacifica,CA,94044,899000,3,1,980,5523,37.649862,-122.488275,43,72,57,43,-254545.2199
1116 Glacier Ave,Pacifica,CA,94044,1098000,3,3,1540,5998,37.591614,-122.461908,43,72,57,43,-327675.2375
1267 Escalero Ave,Pacifica,CA,94044,897000,3,1,1040,5001,37.591995,-122.49561,43,72,57,43,-268635.3294
373 Lynbrook Dr,Pacifica,CA,94044,1028000,4,2.5,1610,4003,37.657063,-122.476923,43,72,57,43,-370490.9419
339 Inverness Dr,Pacifica,CA,94044,1250000,5,3,2910,3999,37.653277,-122.478718,43,72,57,43,-747252.9994
1047 Valencia Way,Pacifica,CA,94044,1298000,4,2.5,1950,1950,37.594843,-122.488191,43,72,57,43,-195961.8284
122 Berendos Ave,Pacifica,CA,94044,1545000,3,2,1830,7850,37.611872,-122.474705,43,72,57,43,-69443.54315
1103 Glacier Ave,Pacifica,CA,94044,995000,3,2,1240,6299,37.591152,-122.462785,43,72,57,43,-301438.7743
812 Standish Rd,Pacifica,CA,94044,995950,3,2,1160,5300,37.589166,-122.498128,43,72,57,43,-233873.987
1183 Crespi Dr,Pacifica,CA,94044,1197000,4,2,1530,9601,37.589667,-122.48624,43,72,57,43,-331403.0857
22 Spruce Ct,Pacifica,CA,94044,1100000,4,2,1610,9300,37.59211,-122.481994,43,72,57,43,-456290.4196
236 Catalina Ave,Pacifica,CA,94044,1050000,3,1,1060,4095,37.655884,-122.481654,43,72,57,43,-97858.83062
1206 Oddstad Blvd,Pacifica,CA,94044,1443000,3,3,2300,6800,37.593302,-122.463142,43,72,57,43,-356682.2714
353 Farallon Ave,Pacifica,CA,94044,1350000,3,2.5,1981,6534,37.655402,-122.484615,43,72,57,43,-294801.8011
77 Montecito Ave,Pacifica,CA,94044,979000,1,1.5,1270,2252,37.632938,-122.492946,43,72,57,43,-210697.5685
309 Bancroft Way,Pacifica,CA,94044,1100000,3,2,1500,5000,37.652385,-122.486375,43,72,57,43,-277517.355
227 Marvilla Cir,Pacifica,CA,94044,1599000,4,3.5,2365,5937,37.594185,-122.497721,43,72,57,43,-204917.2613
607 Hickey Blvd,Pacifica,CA,94044,988000,4,3,1200,3999,37.654811,-122.479761,43,72,57,43,-221493.8576
1128 Cleveland St,Redwood City,CA,94061,1350000,3,2,1755,5245,37.475481,-122.229103,65,29,48.4,29,-273180.0054
212 Oak Ave,Redwood City,CA,94061,829000,3,1,1240,4373,37.476092,-122.225812,65,29,48.4,29,-530953.723
203 W Oakwood Blvd,Redwood City,CA,94061,1725000,3,3,2040,7902,37.463326,-122.239204,65,29,48.4,29,-108626.1525
1226 Ebener St,Redwood City,CA,94061,1488000,3,3,1450,2178,37.472808,-122.228426,65,29,48.4,29,96693.74194
632-636 Myrtle St,Redwood City,CA,94061,1498000,2,2,1380,6251,37.474071,-122.238796,65,29,48.4,29,17605.10144
737 Ruby St,Redwood City,CA,94061,1998000,4,3,2000,5998,37.47014,-122.241549,65,29,48.4,29,239521.7861
211 Alexander Ave,Redwood City,CA,94061,1088000,2,1,720,2548,37.457481,-122.224174,65,29,48.4,29,21966.15116
2207 Roosevelt Ave,Redwood City,CA,94061,1449000,3,2,1240,10018.8,37.465084,-122.24135,65,29,48.4,29,-79144.07436
1921 Kentfield Ave,Redwood City,CA,94061,1998000,4,2.5,2710,4251,37.461683,-122.22235,65,29,48.4,29,-35515.75561
236 Center St,Redwood City,CA,94061,1390000,3,3.5,1630,5998,37.471853,-122.220114,65,29,48.4,29,-198027.4055
902 Pleasant Hill Rd,Redwood City,CA,94061,1675000,3,2.5,2130,7701,37.459139,-122.253804,65,29,48.4,29,-194099.2999
2709 Carolina Ave,Redwood City,CA,94061,1449000,3,1.5,1330,6050,37.453045,-122.233094,65,29,48.4,29,-2373.145418
409 Center St,Redwood City,CA,94061,1500000,4,3.5,2110,5759,37.470456,-122.220524,65,29,48.4,29,-302032.8852
18 Alverno Ct,Redwood City,CA,94061,1698000,2,2.5,2800,4909,37.453272,-122.262172,65,29,48.4,29,-396578.8126
3098 Muller Ct,Redwood City,CA,94061,2698000,4,3.5,2380,10454.4,37.454778,-122.241723,65,29,48.4,29,631706.4885
8 Sequoia Ct,Redwood City,CA,94061,2250000,4,2.5,2700,8542,37.450607,-122.223541,65,29,48.4,29,93260.63621
1634 Virginia Ave,Redwood City,CA,94061,1499000,3,2,1640,6599,37.460319,-122.231877,65,29,48.4,29,-111538.1837
455 Sequoia Ave,Redwood City,CA,94061,1675000,3,2,1330,10890,37.451299,-122.222622,65,29,48.4,29,79441.56629
454 Buena Vista Ave,Redwood City,CA,94061,3398000,5,5.5,3190,7501,37.453197,-122.221423,65,29,48.4,29,1046540.238
207 Yarborough Ln,Redwood City,CA,94061,2295000,4,3,2170,4456,37.463742,-122.219655,65,29,48.4,29,504143.2676
1321 Oak Ave,Redwood City,CA,94061,1388000,3,2.5,1490,2339,37.469228,-122.233773,65,29,48.4,29,-26529.61865
1147 McKinley St,Redwood City,CA,94061,1585000,3,2,1373,5700,37.470709,-122.234506,65,29,48.4,29,124244.3287
1010 Eden Bower Ln,Redwood City,CA,94061,2298000,4,3,2410,5175,37.451114,-122.259574,65,29,48.4,29,375161.3203
2179 Alameda De Las Pulgas,Redwood City,CA,94061,1575000,3,1.5,1240,14374.8,37.44816,-122.230036,65,29,48.4,29,-82910.83382
2503 Carson St,Redwood City,CA,94061,1349000,3,2,1434,7453,37.460641,-122.239537,65,29,48.4,29,-192079.5023
439 Santa Clara Ave,Redwood City,CA,94061,1750000,3,2,1710,6800,37.450193,-122.224083,65,29,48.4,29,101226.5059
563 Santa Clara Ave,Redwood City,CA,94061,1798000,3,2,2010,10454.4,37.448839,-122.221939,65,29,48.4,29,-97842.70302
1833 Vera Ave,Redwood City,CA,94061,1895000,4,3,2790,8799,37.468991,-122.241796,65,29,48.4,29,-310856.4909
932 Pleasant Hill Rd,Redwood City,CA,94061,2498000,5,3,2480,7261,37.45842,-122.252902,65,29,48.4,29,480771.2024
132 Rutherford Ave,Redwood City,CA,94061,1699000,3,2,1660,5101,37.457423,-122.226487,65,29,48.4,29,123874.2016
2024 Idaho Ct,Redwood City,CA,94061,1988000,4,2.5,1880,10018.8,37.453954,-122.231816,65,29,48.4,29,165022.0948
1401 Roosevelt Ave,Redwood City,CA,94061,2198000,5,5,2903,8398,37.470155,-122.2364,65,29,48.4,29,-47967.15928
1753 W Selby Ln,Redwood City,CA,94061,3198000,4,4.5,2650,5428,37.450747,-122.224058,65,29,48.4,29,1157061.675
2502 McGarvey Ave,Redwood City,CA,94061,1998000,4,3.5,2257,6155,37.464704,-122.243908,65,29,48.4,29,116450.4911
1025 Harrison Ave,Redwood City,CA,94062,1698000,3,3,2300,3123,37.47686,-122.23942,68,43,59.5,43,-14647.19582
662 Oak Park Way,Redwood City,CA,94062,1998000,4,2.5,2112,8398,37.462513,-122.270375,68,43,59.5,43,214816.152
714 Glenmere Way,Redwood City,CA,94062,2395000,4,3.5,3099,16988.4,37.45953,-122.271993,68,43,59.5,43,-98783.90903
212 Hillview Ave,Redwood City,CA,94062,1499000,2,1,1090,4961,37.476385,-122.249215,68,43,59.5,43,289018.3545
606 Park Rd,Redwood City,CA,94062,1998000,4,2.5,2660,6599,37.46647,-122.267096,68,43,59.5,43,15957.52184
782 Glenmere Way,Redwood City,CA,94062,2350000,4,3.5,2930,6199,37.459972,-122.269034,68,43,59.5,43,255490.639
3560 Altamont Way,Redwood City,CA,94062,1695000,4,2,2203,7571,37.466386,-122.250795,68,43,59.5,43,-105468.9149
103 Hillside Dr,Woodside,CA,94062,2500000,3,3,1700,9500,37.437828,-122.253951,68,43,59.5,43,873786.4661
14 Inner Cir,Redwood City,CA,94062,1950000,3,2,1464,7000,37.476734,-122.24595,68,43,59.5,43,506982.3133
1203 Edgewood Rd,Redwood City,CA,94062,2700000,5,3.5,3500,13939.2,37.48258,-122.255742,68,43,59.5,43,112321.0005
150 Elwood St,Redwood City,CA,94062,1698000,2,2,1839,4809,37.484672,-122.241157,68,43,59.5,43,147498.7698
651 Handley Trl,Redwood City,CA,94062,1799000,3,2.5,2070,5885,37.46618,-122.26927,68,43,59.5,43,110027.7687
103 Alameda De Las Pulgas,Redwood City,CA,94062,1895000,3,2.5,1570,7680,37.48281,-122.255196,68,43,59.5,43,382893.0229
3707 Hamilton Way,Redwood City,CA,94062,1788000,3,2,1560,7597,37.464015,-122.257558,68,43,59.5,43,282972.4004
2508 Eaton Ave,Redwood City,CA,94062,1699000,3,2,1590,4500,37.484285,-122.257669,68,43,59.5,43,272412.7749
1707 Edgewood Rd,Redwood City,CA,94062,2199995,4,2,2000,19602,37.474569,-122.263824,68,43,59.5,43,134636.0042
37 Nevada St,Redwood City,CA,94062,2450000,4,3,1660,9100,37.48126,-122.249984,68,43,59.5,43,854129.7201
2132 Stockbridge Ave,Woodside,CA,94062,2995000,3,2,2100,10890,37.443207,-122.226703,68,43,59.5,43,1143106.737
878 Hillcrest Dr,Redwood City,CA,94062,2098000,4,2.5,1910,17424,37.474304,-122.256669,68,43,59.5,43,138985.3914
754 Loma Ct,Redwood City,CA,94062,3488000,3,3,3720,15681.6,37.482037,-122.272326,68,43,59.5,43,747065.1673
738 Sylvan Way,Redwood City,CA,94062,3995000,4,4.5,4630,18295.2,37.464119,-122.269065,68,43,59.5,43,756988.2585
2041 Cordilleras Rd,Redwood City,CA,94062,3298000,4,3.5,3479,19602,37.47414,-122.273019,68,43,59.5,43,551298.4482
1025 Harrison Ave,Redwood City,CA,94062,1698000,3,3,2300,3123,37.47686,-122.23942,68,43,59.5,43,-14647.19582
714 Glenmere Way,Redwood City,CA,94062,2395000,4,3.5,3099,16988.4,37.45953,-122.271993,68,43,59.5,43,-98783.90903
662 Oak Park Way,Redwood City,CA,94062,1998000,4,2.5,2112,8398,37.462513,-122.270375,68,43,59.5,43,214816.152
606 Park Rd,Redwood City,CA,94062,1998000,4,2.5,2660,6599,37.46647,-122.267096,68,43,59.5,43,15957.52184
782 Glenmere Way,Redwood City,CA,94062,2350000,4,3.5,2930,6199,37.459972,-122.269034,68,43,59.5,43,255490.639
103 Hillside Dr,Woodside,CA,94062,2500000,3,3,1700,9500,37.437828,-122.253951,68,43,59.5,43,873786.4661
3560 Altamont Way,Redwood City,CA,94062,1695000,4,2,2203,7571,37.466386,-122.250795,68,43,59.5,43,-105468.9149
83 El Vanada Rd,Redwood City,CA,94062,1388000,3,2,1580,10890,37.475942,-122.276177,68,43,59.5,43,-224340.7754
1203 Edgewood Rd,Redwood City,CA,94062,2700000,5,3.5,3500,13939.2,37.48258,-122.255742,68,43,59.5,43,112321.0005
3707 Hamilton Way,Redwood City,CA,94062,1788000,3,2,1560,7597,37.464015,-122.257558,68,43,59.5,43,282972.4004
2508 Eaton Ave,Redwood City,CA,94062,1699000,3,2,1590,4500,37.484285,-122.257669,68,43,59.5,43,272412.7749
37 Nevada St,Redwood City,CA,94062,2450000,4,3,1660,9100,37.48126,-122.249984,68,43,59.5,43,854129.7201
527 Sunset Way,Redwood City,CA,94062,2600000,4,2,2700,17424,37.460817,-122.272349,68,43,59.5,43,277049.8814
651 Handley Trl,Redwood City,CA,94062,1799000,3,2.5,2070,5885,37.46618,-122.26927,68,43,59.5,43,110027.7687
150 Elwood St,Redwood City,CA,94062,1698000,2,2,1839,4809,37.484672,-122.241157,68,43,59.5,43,147498.7698
103 Alameda De Las Pulgas,Redwood City,CA,94062,1895000,3,2.5,1570,7680,37.48281,-122.255196,68,43,59.5,43,382893.0229
1707 Edgewood Rd,Redwood City,CA,94062,2199995,4,2,2000,19602,37.474569,-122.263824,68,43,59.5,43,134636.0042
2132 Stockbridge Ave,Woodside,CA,94062,2995000,3,2,2100,10890,37.443207,-122.226703,68,43,59.5,43,1143106.737
878 Hillcrest Dr,Redwood City,CA,94062,2098000,4,2.5,1910,17424,37.474304,-122.256669,68,43,59.5,43,138985.3914
754 Loma Ct,Redwood City,CA,94062,3488000,3,3,3720,15681.6,37.482037,-122.272326,68,43,59.5,43,747065.1673
738 Sylvan Way,Redwood City,CA,94062,3995000,4,4.5,4630,18295.2,37.464119,-122.269065,68,43,59.5,43,756988.2585
2041 Cordilleras Rd,Redwood City,CA,94062,3298000,4,3.5,3479,19602,37.47414,-122.273019,68,43,59.5,43,551298.4482
213 Dumbarton Ave,Redwood City,CA,94063,830000,3,1,900,2901,37.473561,-122.211121,68,25,36,25,-274510.4183
287 G St,Redwood City,CA,94063,1198950,3,1,1280,5850,37.496611,-122.242794,68,25,36,25,-168469.744
609 Stanford Ave,Redwood City,CA,94063,1438000,4,2.5,1960,5001,37.47949,-122.208927,68,25,36,25,-217388.6831
3 Friendly Ct,Redwood City,CA,94063,1398000,4,2,1792,7000,37.483785,-122.188991,68,25,36,25,-239545.7098
3187 Bay Rd,Redwood City,CA,94063,1149000,2,1,940,6098,37.481912,-122.198672,68,25,36,25,-69177.27791
3719 Hoover St,Redwood City,CA,94063,1150000,3,1,1250,6534,37.483935,-122.185544,68,25,36,25,-223976.0068
928 Stambaugh St,Redwood City,CA,94063,1050000,3,1,1060,4800,37.481922,-122.219019,68,25,36,25,-184790.7484
38 Broadway St,Redwood City,CA,94063,1198000,3,1,970,5998,37.484782,-122.197569,68,25,36,25,-31018.57885
787 Seventh Ave,Redwood City,CA,94063,1095000,2,1,970,5759,37.478833,-122.198364,68,25,36,25,-126898.6855
246 Biarritz Ct,Redwood City,CA,94065,2248422,3,2.5,2019,6717,37.541481,-122.24434,68,29,80.5,29,170819.8104
648 Spar Dr,Redwood City,CA,94065,1625000,3,2,1600,7370,37.52289,-122.248812,68,29,80.5,29,-279031.2638
459 Starboard Dr,Redwood City,CA,94065,1748000,3,2.5,1980,3990,37.530056,-122.254052,68,29,80.5,29,-230397.4718
257 Monaco Dr,Redwood City,CA,94065,2499942,4,3,2545,6464,37.541702,-122.242827,68,29,80.5,29,187560.2139
563 Compass Cir,Redwood City,CA,94065,2748472,5,3,2880,6499,37.527758,-122.250835,68,29,80.5,29,280720.4684
1572 Jenevein Ave,San Bruno,CA,94066,1299000,4,3,2440,5001,37.619865,-122.420093,40,50,45.6,40,-451459.8643
3303 Aegean Way,San Bruno,CA,94066,1395000,5,3.5,2587,5184,37.632592,-122.460801,40,50,45.6,40,-428631.1437
3520 Longview Dr,San Bruno,CA,94066,1250000,5,3,2240,12196.8,37.629608,-122.459939,40,50,45.6,40,-622689.6842
100 Stanislaus Ct,San Bruno,CA,94066,1298000,3,2.5,2040,5998,37.624483,-122.455017,40,50,45.6,40,-297889.6978
230 Emaron Dr,San Bruno,CA,94066,1149000,3,3,1560,5140,37.631102,-122.456725,40,50,45.6,40,-200204.2054
229 Cypress Ave,San Bruno,CA,94066,1250000,4,2,1840,4792,37.61647,-122.412955,40,50,45.6,40,-217826.965
2861 Fleetwood Dr,San Bruno,CA,94066,928000,3,2,1110,6098,37.627252,-122.448634,40,50,45.6,40,-242438.3223
430 Hawthorne Ave,San Bruno,CA,94066,1188000,3,2,1360,5022,37.616637,-122.42172,40,50,45.6,40,-65553.37212
381 Huntington Ave,San Bruno,CA,94066,1450000,5,3,2860,3202,37.622073,-122.407457,40,50,45.6,40,-440351.7283
1811 Kains Ave,San Bruno,CA,94066,1375000,4,2,1710,5863,37.621951,-122.425373,40,50,45.6,40,-64844.30671
3220 Longview Dr,San Bruno,CA,94066,1500000,4,3,2550,13939.2,37.628295,-122.455806,40,50,45.6,40,-567406.5248
400 N San Anselmo Ave,San Bruno,CA,94066,749998,2,1,990,4356,37.622229,-122.409006,40,50,45.6,40,-313264.1914
523 Acacia Ave,San Bruno,CA,94066,925000,2,1,920,3700,37.622274,-122.416462,40,50,45.6,40,-86472.27229
2330 Rosewood Dr,San Bruno,CA,94066,1348000,4,2,1340,6957,37.615309,-122.431572,40,50,45.6,40,46015.86013
3491 Fleetwood Dr,San Bruno,CA,94066,1088000,4,3,2190,12196.8,37.635928,-122.458703,40,50,45.6,40,-761655.7912
701 Green Ave,San Bruno,CA,94066,1295000,3,2.5,1980,4792,37.627529,-122.414277,40,50,45.6,40,-237321.8655
676 7th Ave,San Bruno,CA,94066,788000,3,2,1360,3049,37.629398,-122.404997,40,50,45.6,40,-406777.0139
565 Chestnut Ave,San Bruno,CA,94066,998000,3,1,1360,5998,37.621623,-122.420951,40,50,45.6,40,-284628.7526
2571 Heather Ln,San Bruno,CA,94066,899000,3,2,1110,6500,37.628404,-122.443839,40,50,45.6,40,-283414.0425
718 Pepper Dr,San Bruno,CA,94066,1190000,3,2,1410,4792,37.62255,-122.425813,40,50,45.6,40,-79735.48492
3035 Fleetwood Dr,San Bruno,CA,94066,1388000,5,3,1110,7980,37.631476,-122.45251,40,50,45.6,40,161496.2412
2301 Toyon Way,San Bruno,CA,94066,988000,3,2,1110,8276,37.630143,-122.439271,40,50,45.6,40,-247321.702
925 Lupin Way,San Carlos,CA,94070,1600000,4,2,1749,5502,37.494408,-122.265083,63,31,80,31,-284193.7935
1408 Cordilleras Ave,San Carlos,CA,94070,2248000,4,2,2250,6599,37.49103,-122.257523,63,31,80,31,100326.5857
2253 Howard Ave,San Carlos,CA,94070,1499000,3,2,1628,6120,37.491651,-122.260998,63,31,80,31,-347862.2079
970 Holly St,San Carlos,CA,94070,1199000,2,1,890,5850,37.51094,-122.259604,63,31,80,31,-299838.5525
136 Northam Ave,San Carlos,CA,94070,3188813,4,3.5,3700,6887,37.50873,-122.27566,63,31,80,31,364577.0673
30 Hilltop Dr,San Carlos,CA,94070,1750000,3,2,1762,5249,37.488294,-122.260512,63,31,80,31,-132645.6474
1411 Crestview Dr,San Carlos,CA,94070,1950000,3,2,2450,10018.8,37.476999,-122.281012,63,31,80,31,-391686.0213
321 Clifton Ave,San Carlos,CA,94070,2695000,5,3.5,3510,8002,37.50483,-122.279361,63,31,80,31,-74923.37815
447 Hillcrest Rd,San Carlos,CA,94070,1998000,3,2,2610,5798,37.502915,-122.269149,63,31,80,31,-291655.3747
300 Chestnut St,San Carlos,CA,94070,2395000,3,3,2415,13068,37.507586,-122.26705,63,31,80,31,-21399.02784
2724 Eaton Ave,San Carlos,CA,94070,3599000,5,4.5,3510,5702,37.48482,-122.26394,63,31,80,31,897594.4241
125 Northam Ave,San Carlos,CA,94070,3050000,5,4.5,4260,5602,37.508169,-122.27576,63,31,80,31,6065.063524
1101 Cordilleras Ave,San Carlos,CA,94070,2159000,3,2.5,1820,4400,37.494449,-122.260521,63,31,80,31,274927.0428
10 Shratton Ave,San Carlos,CA,94070,2295000,3,3,2610,7701,37.500343,-122.286,63,31,80,31,-51346.40855
112 Belvedere Ave,San Carlos,CA,94070,1590000,3,2,1260,4600,37.494879,-122.25146,63,31,80,31,-42051.42496
887 Elm St,San Carlos,CA,94070,2880000,4,4.5,2540,5005,37.502031,-122.258334,63,31,80,31,646215.8221
120 Arundel Rd,San Carlos,CA,94070,1725000,2,2,1420,8425,37.504111,-122.27128,63,31,80,31,-94707.96691
1071 Lupin Way Unit Lowr,San Carlos,CA,94070,1498000,3,1,1220,7449,37.492288,-122.265189,63,31,80,31,-200497.0143
227 Edgehill Dr,San Carlos,CA,94070,1699000,3,2,1310,8102,37.489897,-122.260288,63,31,80,31,-60411.11957
1159 Alameda,San Carlos,CA,94070,1650000,3,2,1790,5920,37.490729,-122.264536,63,31,80,31,-265533.9516
2912 Franciscan Ct,San Carlos,CA,94070,1710000,3,2.5,1750,5998,37.485536,-122.267798,63,31,80,31,-189430.4843
1520 School St,San Carlos,CA,94070,1795000,3,2.5,1680,6599,37.501997,-122.259622,63,31,80,31,-90087.03373
933 Woodland Ave,San Carlos,CA,94070,2480000,4,3,2450,5401,37.499396,-122.258621,63,31,80,31,275879.8514
136 Chesham Ave,San Carlos,CA,94070,1799000,4,2,1850,7000,37.495929,-122.281025,63,31,80,31,-176348.1999
2713 Clifford Ave,San Carlos,CA,94070,2790000,3,3,2820,13068,37.483844,-122.26208,63,31,80,31,187026.4386
247 Fairmont Ave,San Carlos,CA,94070,1749000,3,2,1440,4400,37.4889,-122.255691,63,31,80,31,39984.62988
2501 Melendy Dr,San Carlos,CA,94070,1895000,4,2,1850,6935,37.493224,-122.271619,63,31,80,31,-78411.82725
1094 Hewitt Dr,San Carlos,CA,94070,2350000,4,3,2112,9000,37.488174,-122.27153,63,31,80,31,194373.5029
30 Gateway Ct,San Carlos,CA,94070,2400000,4,3.5,2861,4792,37.506642,-122.285661,63,31,80,31,24683.57314
2460 Howard Ave,San Carlos,CA,94070,3150000,4,3,3213,10454.4,37.489175,-122.264391,63,31,80,31,443840.095
234 8th Ln,South San Francisco,CA,94080,788000,2,1,860,3498,37.659532,-122.407805,39,58,39.2,39,-146368.2616
230 Hazelwood Dr,South San Francisco,CA,94080,899000,2,1,990,4500,37.640147,-122.430994,39,58,39.2,39,-125106.3131
108 Arroyo Dr,South San Francisco,CA,94080,1100000,3,2,1150,10454.4,37.654859,-122.438712,39,58,39.2,39,-175198.4238
35 Capay Cir,South San Francisco,CA,94080,1125000,3,2,1380,9322,37.649527,-122.442944,39,58,39.2,39,-222419.7407
757 Baden Ave,South San Francisco,CA,94080,899000,2,1,1110,4792,37.657317,-122.425893,39,58,39.2,39,-189086.4382
115 Buxton Ave,South San Francisco,CA,94080,925000,3,1,1050,4500,37.662514,-122.459821,39,58,39.2,39,-126746.9847
114 Manzanita Ave,South San Francisco,CA,94080,948000,3,1,1080,4591,37.650515,-122.421304,39,58,39.2,39,-120278.2423
10 Arlington Dr,South San Francisco,CA,94080,850000,3,2,1590,4356,37.670138,-122.454109,39,58,39.2,39,-446223.2192
2504 Ardee Ln,South San Francisco,CA,94080,799000,3,2,2240,5000,37.642392,-122.459854,39,58,39.2,39,-815848.8133
124 Mountain Rd,South San Francisco,CA,94080,1198888,3,2.5,1580,3302,37.664275,-122.422106,39,58,39.2,39,-61329.41296
433 Dianne Ct,South San Francisco,CA,94080,1288888,4,2.5,2050,7000,37.638541,-122.436593,39,58,39.2,39,-298012.7174
28 Mandalay Pl,South San Francisco,CA,94080,1650000,4,2.5,2500,2958,37.666702,-122.401872,39,58,39.2,39,-23793.16478
547 Miller Ave,South San Francisco,CA,94080,1175000,3,1.5,1560,5663,37.657656,-122.417888,39,58,39.2,39,-146338.8693
3907 Crofton Way,South San Francisco,CA,94080,1200000,3,2,1690,2614,37.6491,-122.462275,39,58,39.2,39,-90396.21764
807 LA Montagne Pl,South San Francisco,CA,94080,1378000,3,2.5,2250,2265,37.666877,-122.425046,39,58,39.2,39,-159978.9879
2370 Bourbon Ct,South San Francisco,CA,94080,1350000,4,2.5,1750,7261,37.640849,-122.456409,39,58,39.2,39,-106472.6403
898 Camaritas Cir,South San Francisco,CA,94080,1050000,3,2,1020,5227,37.664262,-122.450611,39,58,39.2,39,-9584.232467
1189 Morningside Ave,South San Francisco,CA,94080,899000,2,1,870,4874,37.669047,-122.433009,39,58,39.2,39,-80966.56023
151 Escanyo Dr,South San Francisco,CA,94080,1200000,4,2,1600,7200,37.649797,-122.448869,39,58,39.2,39,-185553.7499
509 Magnolia Ave,South San Francisco,CA,94080,998000,2,2,1260,3999,37.659575,-122.419331,39,58,39.2,39,-135564.3707
220 Village Way,South San Francisco,CA,94080,875000,3,1,1000,2178,37.652969,-122.409887,39,58,39.2,39,-84539.9017
37 Parkgrove Dr,South San Francisco,CA,94080,1595000,4,2.5,2410,5663,37.671007,-122.416277,39,58,39.2,39,-117915.0509
816 Byron Dr,South San Francisco,CA,94080,925000,3,2,1310,5227,37.66168,-122.453611,39,58,39.2,39,-268180.8121
23 Viewmont Ter,South San Francisco,CA,94080,1219000,3,3,1930,4356,37.663293,-122.423978,39,58,39.2,39,-233853.6918
296 Evergreen Dr,South San Francisco,CA,94080,1199000,3,3,2360,4356,37.666547,-122.439585,39,58,39.2,39,-451945.1719
396 Willow Ave,South San Francisco,CA,94080,950000,3,1,1080,4591,37.664741,-122.432738,39,58,39.2,39,-118278.2423
477 Alta Vista Dr,South San Francisco,CA,94080,1199000,3,2,1650,5001,37.637968,-122.438562,39,58,39.2,39,-144078.6659
3973 Chatham Ct,South San Francisco,CA,94080,1098000,4,2,1820,2450,37.649947,-122.465371,39,58,39.2,39,-247398.7223
68 Arlington Dr,South San Francisco,CA,94080,799000,3,1,990,4500,37.66758,-122.458174,39,58,39.2,39,-225106.3131
3140 Dublin Ct,South San Francisco,CA,94080,1289000,3,3,1820,7405,37.642655,-122.456755,39,58,39.2,39,-204009.9007
150 Pecks Ln,South San Francisco,CA,94080,1198000,4,2,1370,4356,37.664207,-122.404529,39,58,39.2,39,3125.910123
208 Northwood Dr,South San Francisco,CA,94080,899000,2,1,990,4500,37.641581,-122.429504,39,58,39.2,39,-125106.3131
615 Cypress Ave,Sunnyvale,CA,94085,1495000,3,1.5,1352,5332,37.38819,-122.014806,88,29,45.5,29,80986.09506
322 Jackson St,Sunnyvale,CA,94085,1799000,3,2.5,2123,6904,37.383972,-122.024186,88,29,45.5,29,-17026.96386
949 E Duane Ave,Sunnyvale,CA,94085,1199888,3,2,1050,5471,37.388718,-122.002172,88,29,45.5,29,-79142.0495
572 E Duane Ave,Sunnyvale,CA,94085,1290000,3,2,1009,5680,37.388835,-122.016409,88,29,45.5,29,23631.55988
808 San Rafael St,Sunnyvale,CA,94085,1195000,3,2,1326,5990,37.391846,-122.002726,88,29,45.5,29,-226638.3301
677 Cypress Ave,Sunnyvale,CA,94085,1498000,5,3,2101,5314,37.3879,-122.013421,88,29,45.5,29,-260525.3963
755 Borregas Ave,Sunnyvale,CA,94085,1139000,3,1,1027,5001,37.395361,-122.023711,88,29,45.5,29,-115432.9948
565 Manzanita Ave,Sunnyvale,CA,94085,1199888,2,1,884,5044,37.389579,-122.026503,88,29,45.5,29,10050.95431
304 Roosevelt Ave,Sunnyvale,CA,94085,1775000,4,2.5,1924,7000,37.382493,-122.021287,88,29,45.5,29,47788.05693
731 Manzanita Ave,Sunnyvale,CA,94085,1435000,4,3,1825,4491,37.394996,-122.024729,88,29,45.5,29,-171860.8497
582 Maple Ave,Sunnyvale,CA,94085,1218000,3,1,1044,5358,37.388637,-122.019176,88,29,45.5,29,-54899.67292
386 E Duane Ave,Sunnyvale,CA,94085,1660000,3,2,1493,5271,37.389755,-122.021741,88,29,45.5,29,182847.728
871 Lori Ave,Sunnyvale,CA,94086,1395000,3,2,1141,5001,37.384607,-122.038958,88,32,54.5,32,49529.13463
223 Roosevelt Ave,Sunnyvale,CA,94086,1495000,3,2.5,1750,4199,37.381071,-122.022436,88,32,54.5,32,-107131.8228
883 Henderson Ave,Sunnyvale,CA,94086,1549000,4,2,1688,6521,37.359405,-122.005311,88,32,54.5,32,-93742.98537
1178 Myrtle Dr,Sunnyvale,CA,94086,1299000,3,2,1580,5445,37.360803,-121.99741,88,32,54.5,32,-261935.3611
219 W Olive Ave,Sunnyvale,CA,94086,1899000,4,2.5,1612,4160,37.371371,-122.033812,88,32,54.5,32,361603.5456
318 Bartlett Ave,Sunnyvale,CA,94086,1295000,3,1,956,5140,37.378176,-122.016254,88,32,54.5,32,30613.68036
664 W Mc Kinley Ave,Sunnyvale,CA,94086,1824988,3,1,1352,7261,37.375511,-122.037808,88,32,54.5,32,314987.9177
867 Acacia Ave,Sunnyvale,CA,94086,1499000,3,3,1776,5001,37.378739,-122.017244,88,32,54.5,32,-139001.3069
837 Gladiola Dr,Sunnyvale,CA,94086,1650000,4,2,1713,6743,37.364055,-122.016705,88,32,54.5,32,-10873.38932
1059 Carson Dr,Sunnyvale,CA,94086,1839000,3,2,2180,6813,37.381837,-122.047797,88,32,54.5,32,-39095.27467
187 Matadero Dr,Sunnyvale,CA,94086,1598000,3,2,1413,6007,37.37974,-122.045147,88,32,54.5,32,97255.66561
908 Bluebonnet Dr,Sunnyvale,CA,94086,1750000,4,2,1659,6488,37.367234,-122.012759,88,32,54.5,32,121599.7541
687 Toyon Ave,Sunnyvale,CA,94086,1648000,4,2,1507,5567,37.364381,-121.99817,88,32,54.5,32,117059.7002
356 E Washington Ave,Sunnyvale,CA,94086,1499888,3,2,1350,4199,37.375153,-122.02748,88,32,54.5,32,82027.3215
430 Juniper Ct,Sunnyvale,CA,94086,1980000,4,2,1827,6395,37.36933,-122.015018,88,32,54.5,32,276976.376
536 Hawthorn Ave,Sunnyvale,CA,94086,2050000,3,2,1360,13503.6,37.368035,-122.019615,88,32,54.5,32,350345.2633
309 Polaris Ter,Sunnyvale,CA,94086,1898000,3,2.5,1869,2526,37.373028,-122.033988,88,32,54.5,32,290886.7654
215 Roosevelt Ave,Sunnyvale,CA,94086,1748000,3,2.5,1750,4901,37.380905,-122.022492,88,32,54.5,32,124955.3524
1532 Dominion Ave,Sunnyvale,CA,94087,1950000,3,2,1426,16117.2,37.343636,-122.056363,80,30,73.2,30,-54579.02081
728 Dona Ave,Sunnyvale,CA,94087,1425000,3,1,1024,6299,37.37041,-122.052721,80,30,73.2,30,-101898.918
1560 Heron Ave,Sunnyvale,CA,94087,1745000,3,2,1684,6199,37.343265,-122.018593,80,30,73.2,30,-82967.27119
1045 Robin Way,Sunnyvale,CA,94087,1660000,3,2,1567,16117.2,37.362018,-122.061452,80,30,73.2,30,-409534.5992
1453 Firebird Way,Sunnyvale,CA,94087,1685000,4,2.5,1671,6804,37.346776,-122.022995,80,30,73.2,30,-155001.62
1027 Kenbridge Ct,Sunnyvale,CA,94087,1799000,4,2,1371,7431,37.363627,-122.051801,80,30,73.2,30,78523.18945
1643 Swallow Dr,Sunnyvale,CA,94087,1788000,4,2,1421,6303,37.339491,-122.002877,80,30,73.2,30,78092.80989
933 Leighton Way,Sunnyvale,CA,94087,1800000,5,3,2274,6434,37.339496,-122.010189,80,30,73.2,30,-306767.941
1393 Hampton Dr,Sunnyvale,CA,94087,1988888,3,1,1290,7558,37.348576,-122.01346,80,30,73.2,30,301942.7219
1784 Lark Ln,Sunnyvale,CA,94087,1799888,4,2,1828,6643,37.333812,-122.017124,80,30,73.2,30,-107643.798
1621 Waxwing Ave,Sunnyvale,CA,94087,1799950,3,2,1720,6146,37.339146,-121.998126,80,30,73.2,30,-43022.78568
1236 Van Dyck Dr,Sunnyvale,CA,94087,1899950,4,2.5,1912,6351,37.353857,-122.018879,80,30,73.2,30,-37579.95644
997 Chelan Dr,Sunnyvale,CA,94087,2148800,3,2,1733,9666,37.346536,-122.054676,80,30,73.2,30,194976.3743
1580 Belleville Way,Sunnyvale,CA,94087,2269000,4,3,2227,12632.4,37.342118,-122.060321,80,30,73.2,30,-768.579631
1690 Kennewick Dr,Sunnyvale,CA,94087,1999800,4,2,1908,8120,37.338243,-122.045811,80,30,73.2,30,11413.62794
1092 Inverness Way,Sunnyvale,CA,94087,1888000,3,2,1872,6970,37.341657,-122.003483,80,30,73.2,30,-49543.06793
1389 Belleville Way,Sunnyvale,CA,94087,2580000,4,2.5,2274,9866,37.347867,-122.062578,80,30,73.2,30,370991.5819
1564 Quail Ave,Sunnyvale,CA,94087,1895000,3,2,1524,6373,37.342949,-122.005095,80,30,73.2,30,135557.6658
149 Berwick Way,Sunnyvale,CA,94087,2098000,4,2,1770,7153,37.350745,-122.030606,80,30,73.2,30,201994.44
772 Limerick Ct,Sunnyvale,CA,94087,1749000,3,2,1402,5911,37.338986,-122.019462,80,30,73.2,30,59523.50598
951 E Homestead Rd,Sunnyvale,CA,94087,1598000,3,2,1290,6573,37.338017,-122.009076,80,30,73.2,30,-59601.78454
1166 Pome Ave,Sunnyvale,CA,94087,1999800,4,2,1437,10454.4,37.355962,-122.045223,80,30,73.2,30,158850.31
501 Kinross Ct,Sunnyvale,CA,94087,1999999,5,3.5,2650,5500,37.34,-122.0294,80,30,73.2,30,-252159.6308
136 Avon Ter,Sunnyvale,CA,94087,1790000,3,2.5,1639,3393,37.367008,-122.100113,80,30,73.2,30,66354.95133
856 Radcliff Way,Sunnyvale,CA,94087,2175000,3,2.5,1892,6804,37.360014,-122.048415,80,30,73.2,30,233188.5728
1502 Kingsgate Dr,Sunnyvale,CA,94087,2480000,4,2,1872,8716,37.344624,-122.047716,80,30,73.2,30,490442.983
735 Lakewood Dr,Sunnyvale,CA,94089,1375000,3,2,1420,5467,37.394635,-122.004633,88,29,51.2,29,-125670.901
921 Lakebird Dr,Sunnyvale,CA,94089,1140000,3,2,1258,5942,37.399508,-121.998844,88,29,51.2,29,-300191.5033
380 Greenlake Dr,Sunnyvale,CA,94089,1298000,3,2,1108,6826,37.39945,-122.007707,88,29,51.2,29,-99424.49252
1365 Socorro Ave,Sunnyvale,CA,94089,1380000,4,2,1580,5841,37.390643,-121.988116,88,29,51.2,29,-205520.9492
304 Persian Dr,Sunnyvale,CA,94089,2250000,3,1,1000,13068,37.404512,-122.017535,88,29,51.2,29,716377.3591
230 Velvetlake Dr,Sunnyvale,CA,94089,1399000,4,3,1468,8425,37.392911,-121.996372,88,29,51.2,29,-211903.2901
835 S Lakewood Dr,Sunnyvale,CA,94089,1450000,3,2,1108,5512,37.393539,-122.000789,88,29,51.2,29,91720.02584
1157 Prescott Ave,Sunnyvale,CA,94089,999000,3,2,1108,6050,37.39784,-121.992814,88,29,51.2,29,-375307.1818
1121 Fairwood Ave,Sunnyvale,CA,94089,1249000,3,2,1108,7636,37.396506,-121.991545,88,29,51.2,29,-172554.6751
1101 Palamos Ave,Sunnyvale,CA,94089,1199000,3,2,1108,5654,37.399562,-121.995442,88,29,51.2,29,-163510.2037
746 Lakemuir Dr,Sunnyvale,CA,94089,1298800,3,2,1416,5889,37.394752,-122.003991,88,29,51.2,29,-212599.7168
1273 Socorro Ave,Sunnyvale,CA,94089,1340000,3,2,1486,5401,37.393838,-121.989203,88,29,51.2,29,-189109.4768
1241 Pecos Way,Sunnyvale,CA,94089,1189000,3,2,1108,6375,37.399142,-121.989601,88,29,51.2,29,-194989.0452
735 Lakewood Dr,Sunnyvale,CA,94089,1375000,3,2,1420,5467,37.394635,-122.004633,88,29,51.2,29,-125670.901
921 Lakebird Dr,Sunnyvale,CA,94089,1140000,3,2,1258,5942,37.399508,-121.998844,88,29,51.2,29,-300191.5033
1241 Pecos Way,Sunnyvale,CA,94089,1189000,3,2,1108,6375,37.399142,-121.989601,88,29,51.2,29,-194989.0452
746 Lakemuir Dr,Sunnyvale,CA,94089,1298800,3,2,1416,5889,37.394752,-122.003991,88,29,51.2,29,-212599.7168
1157 Prescott Ave,Sunnyvale,CA,94089,999000,3,2,1108,6050,37.39784,-121.992814,88,29,51.2,29,-375307.1818
230 Velvetlake Dr,Sunnyvale,CA,94089,1399000,4,3,1468,8425,37.392911,-121.996372,88,29,51.2,29,-211903.2901
380 Greenlake Dr,Sunnyvale,CA,94089,1298000,3,2,1108,6826,37.39945,-122.007707,88,29,51.2,29,-99424.49252
835 S Lakewood Dr,Sunnyvale,CA,94089,1450000,3,2,1108,5512,37.393539,-122.000789,88,29,51.2,29,91720.02584
1121 Fairwood Ave,Sunnyvale,CA,94089,1249000,3,2,1108,7636,37.396506,-121.991545,88,29,51.2,29,-172554.6751
1365 Socorro Ave,Sunnyvale,CA,94089,1380000,4,2,1580,5841,37.390643,-121.988116,88,29,51.2,29,-205520.9492
1101 Palamos Ave,Sunnyvale,CA,94089,1199000,3,2,1108,5654,37.399562,-121.995442,88,29,51.2,29,-163510.2037
304 Persian Dr,Sunnyvale,CA,94089,2250000,3,1,1000,13068,37.404512,-122.017535,88,29,51.2,29,716377.3591
1273 Socorro Ave,Sunnyvale,CA,94089,1340000,3,2,1486,5401,37.393838,-121.989203,88,29,51.2,29,-189109.4768
456 Clementina St,San Francisco,CA,94103,4250000,2,2.5,4950,3920,37.77977,-122.405274,8,68,30.1,8,1061698.421
1126 Rhode Island St,San Francisco,CA,94107,1799000,3,2,1632,2614,37.755566,-122.401999,16,68,42.2,16,182531.3895
228 Clara St,San Francisco,CA,94107,1509000,1,1,800,2178,37.778973,-122.403272,16,68,42.2,16,288803.9616
1387 DE Haro St,San Francisco,CA,94107,995000,1,1,794,1742,37.752338,-122.400094,16,68,42.2,16,-209443.3791
224 Mississippi St,San Francisco,CA,94107,2700000,2,2,3400,2614,37.763555,-122.394988,16,68,42.2,16,269052.9318
712 DE Haro St,San Francisco,CA,94107,3598000,4,3.5,2826,2614,37.760734,-122.40152,16,68,42.2,16,1431482.024
1126 Rhode Island St,San Francisco,CA,94107,1799000,3,2,1632,2614,37.755566,-122.401999,16,68,42.2,16,182531.3895
228 Clara St,San Francisco,CA,94107,1509000,1,1,800,2178,37.778973,-122.403272,16,68,42.2,16,288803.9616
1387 DE Haro St,San Francisco,CA,94107,995000,1,1,794,1742,37.752338,-122.400094,16,68,42.2,16,-209443.3791
224 Mississippi St,San Francisco,CA,94107,2700000,2,2,3400,2614,37.763555,-122.394988,16,68,42.2,16,269052.9318
712 DE Haro St,San Francisco,CA,94107,3598000,4,3.5,2826,2614,37.760734,-122.40152,16,68,42.2,16,1431482.024
5 N View Ct,San Francisco,CA,94109,3350000,4,2,2963,3485,37.804034,-122.42263,13,80,50.6,13,976314.2598
1 McCormick St,San Francisco,CA,94109,3795000,4,4,3033,1742,37.794921,-122.419171,13,80,50.6,13,1440991.388
606 Ellis St,San Francisco,CA,94109,1888000,3,2,1635,2178,37.784616,-122.416483,13,80,50.6,13,165030.4447
5 Torrens Ct,San Francisco,CA,94109,1599000,3,1,1291,2178,37.793011,-122.418768,13,80,50.6,13,34503.62875
2531 Larkin St,San Francisco,CA,94109,2395000,4,2,2575,2614,37.80126,-122.421459,13,80,50.6,13,226004.6636
5 N View Ct,San Francisco,CA,94109,3350000,4,2,2963,3485,37.804034,-122.42263,13,80,50.6,13,976314.2598
1 McCormick St,San Francisco,CA,94109,3795000,4,4,3033,1742,37.794921,-122.419171,13,80,50.6,13,1440991.388
606 Ellis St,San Francisco,CA,94109,1888000,3,2,1635,2178,37.784616,-122.416483,13,80,50.6,13,165030.4447
5 Torrens Ct,San Francisco,CA,94109,1599000,3,1,1291,2178,37.793011,-122.418768,13,80,50.6,13,34503.62875
2531 Larkin St,San Francisco,CA,94109,2395000,4,2,2575,2614,37.80126,-122.421459,13,80,50.6,13,226004.6636
24 Costa St,San Francisco,CA,94110,849000,1,1,1025,1956,37.744887,-122.406566,17,68,31.3,17,-355952.8518
738 Banks St,San Francisco,CA,94110,999000,3,2,1509,1742,37.733979,-122.413328,17,68,31.3,17,-422545.8018
1609 Dolores St,San Francisco,CA,94110,2495000,4,2,2094,1742,37.743595,-122.424025,17,68,31.3,17,803957.6498
521 Ellsworth St,San Francisco,CA,94110,995000,2,1,1000,1742,37.73681,-122.414563,17,68,31.3,17,-192060.7707
144 Andover St,San Francisco,CA,94110,1339250,2,1.5,1744,1742,37.741081,-122.416542,17,68,31.3,17,-190555.099
7 Wool St,San Francisco,CA,94110,695000,1,1,800,1742,37.741435,-122.416756,17,68,31.3,17,-399925.1985
82 Putnam St,San Francisco,CA,94110,800000,3,1,1240,1742,37.738493,-122.411043,17,68,31.3,17,-497623.4572
2770 23rd St,San Francisco,CA,94110,1175000,3,1.5,1454,1285,37.754582,-122.407871,17,68,31.3,17,-207594.33
3145 Cesar Chavez,San Francisco,CA,94110,1195000,2,1,1315,5227,37.747895,-122.412509,17,68,31.3,17,-240993.6624
364 Crescent Ave,San Francisco,CA,94110,2495000,4,3,2725,2614,37.734747,-122.417625,17,68,31.3,17,487292.7355
626 Banks St,San Francisco,CA,94110,898000,2,1,825,1742,37.735494,-122.413188,17,68,31.3,17,-208442.1451
173 Anderson St,San Francisco,CA,94110,1150000,4,1.5,1494,1742,37.740661,-122.414956,17,68,31.3,17,-264635.6339
226 Richland Ave,San Francisco,CA,94110,1500000,2,1,1430,2614,37.735661,-122.422226,17,68,31.3,17,88870.56506
1225 San Bruno Ave,San Francisco,CA,94110,1199000,2,1,930,1742,37.753603,-122.40414,17,68,31.3,17,44186.67957
324 Rutledge St,San Francisco,CA,94110,1898000,4,3.5,1733,2614,37.745131,-122.40981,17,68,31.3,17,347285.1733
156 Bonview St,San Francisco,CA,94110,999000,2,1,750,1742,37.741806,-122.417854,17,68,31.3,17,-72891.30552
540 Shotwell St,San Francisco,CA,94110,1599000,4,3,1801,3485,37.759773,-122.416186,17,68,31.3,17,-8988.315069
122 Brewster St,San Francisco,CA,94110,1695000,4,3,2333,1742,37.744752,-122.407142,17,68,31.3,17,-106144.3589
400 Franconia St,San Francisco,CA,94110,1800000,5,4.5,4845,6534,37.74349,-122.407925,17,68,31.3,17,-1301122.496
45 Montcalm St,San Francisco,CA,94110,1425000,2,2,1275,1873,37.747144,-122.405778,17,68,31.3,17,107350.2819
1328 York St,San Francisco,CA,94110,1650000,3,1,1200,2596,37.750733,-122.408266,17,68,31.3,17,345362.6993
48 Fair Ave,San Francisco,CA,94110,1495000,3,2,1582,1742,37.74513,-122.419193,17,68,31.3,17,39824.71441
2975 Harrison St,San Francisco,CA,94110,1549000,2,1,1200,2614,37.74992,-122.411323,17,68,31.3,17,243826.473
3336 23rd St,San Francisco,CA,94110,3195000,3,3.5,2668,2178,37.753986,-122.419406,17,68,31.3,17,1226539.966
32-A Elsie St,San Francisco,CA,94110,2395000,4,2.5,2231,1742,37.744371,-122.416888,17,68,31.3,17,640844.7828
39 Virginia Ave,San Francisco,CA,94110,1439000,2,1,1434,1742,37.743022,-122.420738,17,68,31.3,17,52005.03779
33 Stoneman St,San Francisco,CA,94110,1899000,3,3,2170,1742,37.744882,-122.414489,17,68,31.3,17,172946.1323
154 Bonview St,San Francisco,CA,94110,2725000,3,2.5,1875,2614,37.741867,-122.417815,17,68,31.3,17,1108868.917
114 Virginia Ave,San Francisco,CA,94110,2750000,5,4,2570,1742,37.742308,-122.419974,17,68,31.3,17,839674.9881
100 Gates St,San Francisco,CA,94110,2400000,3,4,2120,1742,37.741443,-122.414021,17,68,31.3,17,696980.0254
76 Cortland Ave,San Francisco,CA,94110,1849000,3,2.5,1392,1250,37.740256,-122.421363,17,68,31.3,17,496010.3596
489 Madrid St,San Francisco,CA,94112,740500,2,1,1900,2496,37.721717,-122.432388,30,70,33.1,30,-715695.2734
14 Edna St,San Francisco,CA,94112,925000,1,1,1145,2614,37.726924,-122.446276,30,70,33.1,30,-186898.7497
211 Miramar Ave,San Francisco,CA,94112,950000,2,2,1750,3049,37.722231,-122.458498,30,70,33.1,30,-453567.6571
363 Howth St,San Francisco,CA,94112,899000,3,1,1635,3049,37.718802,-122.451898,30,70,33.1,30,-451589.7032
27 Stoneybrook Ave,San Francisco,CA,94112,899000,3,1,1016,2178,37.730615,-122.421503,30,70,33.1,30,-140482.7136
210 Faxon Ave,San Francisco,CA,94112,758000,2,1,852,1873,37.718466,-122.45996,30,70,33.1,30,-196845.4881
73 Danton St,San Francisco,CA,94112,765000,2,1,960,2614,37.731348,-122.432192,30,70,33.1,30,-261673.3455
33 Sadowa St,San Francisco,CA,94112,1900000,2,1,4955,6098,37.712073,-122.455334,30,70,33.1,30,-1070870.974
461 Capistrano Ave,San Francisco,CA,94112,1150000,3,2,1421,2614,37.724628,-122.438926,30,70,33.1,30,-89045.83925
2691 Alemany Blvd,San Francisco,CA,94112,899000,2,1,1238,1742,37.713811,-122.448529,30,70,33.1,30,-229764.6066
105 Vienna St,San Francisco,CA,94112,705000,2,1,924,1742,37.726431,-122.425616,30,70,33.1,30,-279111.7583
342 Lisbon St,San Francisco,CA,94112,1298000,3,3,2480,2614,37.722985,-122.433203,30,70,33.1,30,-428903.6937
226 Trumbull St,San Francisco,CA,94112,699000,2,1,1025,2614,37.730689,-122.425479,30,70,33.1,30,-357617.4064
349 Winding Way,San Francisco,CA,94112,1895000,4,5,3569,4356,37.709146,-122.437661,30,70,33.1,30,-385476.6716
342 Delano Ave,San Francisco,CA,94112,1150000,3,3,2224,3049,37.723853,-122.443129,30,70,33.1,30,-471928.9631
360 London St,San Francisco,CA,94112,1195000,3,2.5,1744,2614,37.723454,-122.435027,30,70,33.1,30,-192844.7882
666 Geneva Ave,San Francisco,CA,94112,1350000,4,2.5,1522,1742,37.71915,-122.444324,30,70,33.1,30,90402.88099
546 Paris St,San Francisco,CA,94112,899000,2,1,1250,2614,37.720196,-122.436399,30,70,33.1,30,-261269.9251
120 Brunswick St,San Francisco,CA,94112,899000,2,1,1182,2614,37.711785,-122.439549,30,70,33.1,30,-229943.8306
300 College Ave,San Francisco,CA,94112,1885000,3,2,1950,3920,37.734368,-122.424121,30,70,33.1,30,363349.3769
355 Ney St,San Francisco,CA,94112,749950,2,1,862,1742,37.730711,-122.423468,30,70,33.1,30,-205599.731
126 Ashton Ave,San Francisco,CA,94112,1065000,3,2,1721,2614,37.720547,-122.461942,30,70,33.1,30,-312249.1975
174 Majestic Ave,San Francisco,CA,94112,899000,3,2,1356,2614,37.715969,-122.45309,30,70,33.1,30,-310101.7783
39 Chicago Way,San Francisco,CA,94112,898888,2,1,990,3485,37.710199,-122.429008,30,70,33.1,30,-167553.0751
572 Cordova St,San Francisco,CA,94112,899000,2,1,1137,2614,37.708549,-122.434563,30,70,33.1,30,-209213.3268
2217 San Jose Ave,San Francisco,CA,94112,998000,2,1.5,900,2614,37.72124,-122.445784,30,70,33.1,30,-1032.673847
275 Santa Rosa Ave,San Francisco,CA,94112,1499126,5,2,1393,4356,37.728426,-122.4397,30,70,33.1,30,221084.3532
125 Margaret Ave,San Francisco,CA,94112,998000,4,2,1502,2614,37.716863,-122.452751,30,70,33.1,30,-278360.746
218 Thrift St,San Francisco,CA,94112,949000,2,1,1150,3049,37.717711,-122.459844,30,70,33.1,30,-178160.9408
412 College Ave,San Francisco,CA,94112,1599000,3,2,1650,3920,37.733251,-122.423962,30,70,33.1,30,215552.7351
212 Sagamore St,San Francisco,CA,94112,1095000,4,2,1501,3049,37.711693,-122.459438,30,70,33.1,30,-193858.8698
330 Edna St,San Francisco,CA,94112,1575000,5,2,2265,2614,37.72956,-122.446293,30,70,33.1,30,-52857.95366
14 Edna St,San Francisco,CA,94112,925000,1,1,1145,2614,37.726924,-122.446276,30,70,33.1,30,-186898.7497
489 Madrid St,San Francisco,CA,94112,740500,2,1,1900,2496,37.721717,-122.432388,30,70,33.1,30,-715695.2734
461 Capistrano Ave,San Francisco,CA,94112,1150000,3,2,1421,2614,37.724628,-122.438926,30,70,33.1,30,-89045.83925
27 Stoneybrook Ave,San Francisco,CA,94112,899000,3,1,1016,2178,37.730615,-122.421503,30,70,33.1,30,-140482.7136
210 Faxon Ave,San Francisco,CA,94112,758000,2,1,852,1873,37.718466,-122.45996,30,70,33.1,30,-196845.4881
300 College Ave,San Francisco,CA,94112,1885000,3,2,1950,3920,37.734368,-122.424121,30,70,33.1,30,363349.3769
363 Howth St,San Francisco,CA,94112,899000,3,1,1635,3049,37.718802,-122.451898,30,70,33.1,30,-451589.7032
360 London St,San Francisco,CA,94112,1195000,3,2.5,1744,2614,37.723454,-122.435027,30,70,33.1,30,-192844.7882
211 Miramar Ave,San Francisco,CA,94112,950000,2,2,1750,3049,37.722231,-122.458498,30,70,33.1,30,-453567.6571
412 College Ave,San Francisco,CA,94112,1599000,3,2,1650,3920,37.733251,-122.423962,30,70,33.1,30,215552.7351
349 Winding Way,San Francisco,CA,94112,1895000,4,5,3569,4356,37.709146,-122.437661,30,70,33.1,30,-385476.6716
73 Danton St,San Francisco,CA,94112,765000,2,1,960,2614,37.731348,-122.432192,30,70,33.1,30,-261673.3455
126 Ashton Ave,San Francisco,CA,94112,1065000,3,2,1721,2614,37.720547,-122.461942,30,70,33.1,30,-312249.1975
572 Cordova St,San Francisco,CA,94112,899000,2,1,1137,2614,37.708549,-122.434563,30,70,33.1,30,-209213.3268
33 Sadowa St,San Francisco,CA,94112,1900000,2,1,4955,6098,37.712073,-122.455334,30,70,33.1,30,-1070870.974
666 Geneva Ave,San Francisco,CA,94112,1350000,4,2.5,1522,1742,37.71915,-122.444324,30,70,33.1,30,90402.88099
342 Lisbon St,San Francisco,CA,94112,1298000,3,3,2480,2614,37.722985,-122.433203,30,70,33.1,30,-428903.6937
226 Trumbull St,San Francisco,CA,94112,699000,2,1,1025,2614,37.730689,-122.425479,30,70,33.1,30,-357617.4064
330 Edna St,San Francisco,CA,94112,1575000,5,2,2265,2614,37.72956,-122.446293,30,70,33.1,30,-52857.95366
105 Vienna St,San Francisco,CA,94112,705000,2,1,924,1742,37.726431,-122.425616,30,70,33.1,30,-279111.7583
2217 San Jose Ave,San Francisco,CA,94112,998000,2,1.5,900,2614,37.72124,-122.445784,30,70,33.1,30,-1032.673847
275 Santa Rosa Ave,San Francisco,CA,94112,1499126,5,2,1393,4356,37.728426,-122.4397,30,70,33.1,30,221084.3532
120 Brunswick St,San Francisco,CA,94112,899000,2,1,1182,2614,37.711785,-122.439549,30,70,33.1,30,-229943.8306
342 Delano Ave,San Francisco,CA,94112,1150000,3,3,2224,3049,37.723853,-122.443129,30,70,33.1,30,-471928.9631
2691 Alemany Blvd,San Francisco,CA,94112,899000,2,1,1238,1742,37.713811,-122.448529,30,70,33.1,30,-229764.6066
355 Ney St,San Francisco,CA,94112,749950,2,1,862,1742,37.730711,-122.423468,30,70,33.1,30,-205599.731
174 Majestic Ave,San Francisco,CA,94112,899000,3,2,1356,2614,37.715969,-122.45309,30,70,33.1,30,-310101.7783
218 Thrift St,San Francisco,CA,94112,949000,2,1,1150,3049,37.717711,-122.459844,30,70,33.1,30,-178160.9408
39 Chicago Way,San Francisco,CA,94112,898888,2,1,990,3485,37.710199,-122.429008,30,70,33.1,30,-167553.0751
125 Margaret Ave,San Francisco,CA,94112,998000,4,2,1502,2614,37.716863,-122.452751,30,70,33.1,30,-278360.746
546 Paris St,San Francisco,CA,94112,899000,2,1,1250,2614,37.720196,-122.436399,30,70,33.1,30,-261269.9251
212 Sagamore St,San Francisco,CA,94112,1095000,4,2,1501,3049,37.711693,-122.459438,30,70,33.1,30,-193858.8698
4144 23rd St,San Francisco,CA,94114,1595000,2,1.5,1320,2848,37.753072,-122.435327,14,78,35.7,14,145473.1441
446 Hill St,San Francisco,CA,94114,2895000,4,3,2137,3049,37.755736,-122.431124,14,78,35.7,14,1063111.472
3767 23rd St,San Francisco,CA,94114,2995000,4,3,2491,2178,37.753126,-122.426866,14,78,35.7,14,1025978.903
52 Caselli Ave,San Francisco,CA,94114,1680000,3,1,1250,3023,37.759963,-122.440546,14,78,35.7,14,257507.2833
4406 24th St,San Francisco,CA,94114,1585000,2,1,1011,1742,37.751061,-122.440866,14,78,35.7,14,310770.7288
42 Graystone Ter,San Francisco,CA,94114,2150000,3,2.5,2600,2614,37.75843,-122.447619,14,78,35.7,14,117776.4241
617 Elizabeth St,San Francisco,CA,94114,1595000,3,1.5,1380,2614,37.751821,-122.434637,14,78,35.7,14,124803.4141
639 Grand View Ave,San Francisco,CA,94114,3395000,3,3.5,3660,3920,37.750073,-122.442345,14,78,35.7,14,835551.6962
258 Caselli Ave,San Francisco,CA,94114,2595000,5,3.5,2832,1742,37.759269,-122.443893,14,78,35.7,14,481876.3446
24 Clarendon Ave,San Francisco,CA,94114,4400000,4,3.5,4437,4356,37.759132,-122.449312,14,78,35.7,14,1469616.406
4642 19th St,San Francisco,CA,94114,1985000,2,1.5,1800,2178,37.759175,-122.441529,14,78,35.7,14,334307.3047
564 Liberty St,San Francisco,CA,94114,2995000,4,3,2845,3049,37.75718,-122.433833,14,78,35.7,14,836951.5465
170 Palo Alto Ave,San Francisco,CA,94114,2914250,4,3,2683,6098,37.756996,-122.449991,14,78,35.7,14,740000.5863
52 Clarendon Ave,San Francisco,CA,94114,4295000,3,5,3730,2614,37.759048,-122.450222,14,78,35.7,14,1742210.442
4273 22nd St,San Francisco,CA,94114,1995000,3,2,1795,3049,37.753893,-122.440286,14,78,35.7,14,320663.3002
52 Yukon St,San Francisco,CA,94114,2988000,5,3.5,2938,2287,37.758749,-122.442405,14,78,35.7,14,809808.7512
140 Clarendon Ave,San Francisco,CA,94114,4995000,4,3.5,4350,6970,37.758589,-122.452371,14,78,35.7,14,2026823.408
688 Clipper St,San Francisco,CA,94114,2800000,4,3.5,2388,3523,37.74883,-122.439962,14,78,35.7,14,838360.7035
2104 Divisadero St,San Francisco,CA,94115,3895000,4,3,2740,2178,37.789302,-122.440403,17,80,46.6,17,1755646.453
2787 Pine St,San Francisco,CA,94115,1650000,4,4,2244,2178,37.786721,-122.441564,17,80,46.6,17,-260857.3281
2148 Pine St,San Francisco,CA,94115,4200000,4,3.5,3539,3485,37.788549,-122.431195,17,80,46.6,17,1653628.856
2406 Bush St,San Francisco,CA,94115,3500000,3,3,2375,2614,37.786796,-122.437057,17,80,46.6,17,1515805.28
1335 Divisadero St,San Francisco,CA,94115,2495000,4,2.5,2124,2614,37.781982,-122.43953,17,80,46.6,17,626435.4231
2094 Bush St,San Francisco,CA,94115,2790000,3,2.5,2346,2060,37.787466,-122.431702,17,80,46.6,17,835668.7913
2662 46th Ave,San Francisco,CA,94116,1038000,2,2,900,3049,37.73689,-122.503949,38,78,70.2,38,-194634.215
2563 47th Ave,San Francisco,CA,94116,995000,2,1,878,3049,37.738682,-122.505806,38,78,70.2,38,-227499.302
2621 24th Ave,San Francisco,CA,94116,1149500,2,1,1160,3049,37.738588,-122.481081,38,78,70.2,38,-202910.4588
1845 Pacheco St,San Francisco,CA,94116,1298888,3,2,1951,2060,37.750151,-122.480294,38,78,70.2,38,-388455.9916
2111 21st Ave,San Francisco,CA,94116,1095000,2,1.5,1800,2178,37.74826,-122.478488,38,78,70.2,38,-526296.8958
2631 Ulloa St,San Francisco,CA,94116,1498000,4,4,2087,1307,37.740636,-122.484763,38,78,70.2,38,-229564.0479
2127 42nd Ave,San Francisco,CA,94116,788000,2,1,1162,3049,37.746989,-122.501017,38,78,70.2,38,-565331.8145
3326 Vicente St,San Francisco,CA,94116,1095000,3,2,1549,2614,37.738368,-122.502768,38,78,70.2,38,-423655.3448
2783 41st Ave,San Francisco,CA,94116,995000,2,1,1012,1307,37.734884,-122.499072,38,78,70.2,38,-237335.3477
2531 Pacheco St,San Francisco,CA,94116,925000,2,1,1175,2614,37.749765,-122.487487,38,78,70.2,38,-421361.8249
2179 27th Ave,San Francisco,CA,94116,1350000,2,1,1400,3049,37.746809,-122.484883,38,78,70.2,38,-112973.1453
2210 45th Ave,San Francisco,CA,94116,898000,2,1,973,2178,37.745272,-122.503514,38,78,70.2,38,-342316.305
2005 21st Ave,San Francisco,CA,94116,1388000,3,3,1705,2178,37.75019,-122.478624,38,78,70.2,38,-189532.499
468 Dewey Blvd,San Francisco,CA,94116,1595000,3,1.5,1620,3920,37.746335,-122.460852,38,78,70.2,38,4730.331519
2546 28th Ave,San Francisco,CA,94116,1595000,4,4,2190,3049,37.739881,-122.484814,38,78,70.2,38,-231908.6552
2195 42nd Ave,San Francisco,CA,94116,1249000,5,5,1687,1742,37.745827,-122.50085,38,78,70.2,38,-307251.7054
2695 23rd Ave,San Francisco,CA,94116,1700000,4,3,1525,2614,37.737406,-122.479877,38,78,70.2,38,192400.9238
2828 Wawona St,San Francisco,CA,94116,1196000,3,2,1475,2500,37.736732,-122.497321,38,78,70.2,38,-285169.0834
3015 Ulloa St,San Francisco,CA,94116,1389000,5,2.5,1881,3049,37.740353,-122.488774,38,78,70.2,38,-295559.1963
2611 20th Ave,San Francisco,CA,94116,995000,2,1,1048,2178,37.738985,-122.476745,38,78,70.2,38,-279867.1445
2775 40th Ave,San Francisco,CA,94116,1495000,4,3,1947,9148,37.735072,-122.498125,38,78,70.2,38,-401655.2726
1934 21st Ave,San Francisco,CA,94116,1919000,5,4,2084,3049,37.751589,-122.478106,38,78,70.2,38,140923.198
2214 34th Ave,San Francisco,CA,94116,1549000,5,3,2575,2614,37.745735,-122.49171,38,78,70.2,38,-442310.8299
2355 46th Ave,San Francisco,CA,94116,1288000,3,2,1550,3001,37.742591,-122.505008,38,78,70.2,38,-242644.8877
2071 35th Ave,San Francisco,CA,94116,1289000,4,3,1766,3049,37.748429,-122.493596,38,78,70.2,38,-342581.2423
2066 23rd Ave,San Francisco,CA,94116,1235000,2,2,1350,3049,37.749095,-122.480083,38,78,70.2,38,-204939.2523
2275 26th Ave,San Francisco,CA,94116,1595000,3,1,1600,3049,37.745059,-122.483685,38,78,70.2,38,39891.28256
866 Pacheco St,San Francisco,CA,94116,1698000,3,2.5,1864,3920,37.753955,-122.469449,38,78,70.2,38,-4675.066483
2230 31st Ave,San Francisco,CA,94116,1385000,3,4,1455,3049,37.745606,-122.488436,38,78,70.2,38,-103310.4276
2180 Funston Ave,San Francisco,CA,94116,1889000,4,3,2600,3049,37.747501,-122.469123,38,78,70.2,38,-126786.5781
2295 14th Ave,San Francisco,CA,94116,1740000,3,2,2048,2178,37.745288,-122.470651,38,78,70.2,38,4454.9948
2405 32nd Ave,San Francisco,CA,94116,2900000,5,5,3964,3049,37.742016,-122.489729,38,78,70.2,38,255848.8199
2711 40th Ave,San Francisco,CA,94116,1300000,4,2,1212,1751,37.736176,-122.49802,38,78,70.2,38,-37697.83474
2046 48th Ave,San Francisco,CA,94116,1895000,4,2.5,2030,3049,37.748253,-122.506898,38,78,70.2,38,141799.8025
2100 46th Ave,San Francisco,CA,94116,1395000,3,2,1803,3049,37.747238,-122.504685,38,78,70.2,38,-253626.3232
2260 15th Ave,San Francisco,CA,94116,1598888,3,2,1550,2614,37.74587,-122.471061,38,78,70.2,38,79771.97733
70 Santa Rita Ave,San Francisco,CA,94116,2389000,3,2.5,2520,3485,37.747358,-122.464733,38,78,70.2,38,397079.0587
1151-1153 Fell St,San Francisco,CA,94117,1900000,4,2,2788,2614,37.773918,-122.436796,14,80,56.2,14,-403364.1174
1543 Cole St,San Francisco,CA,94117,3895000,3,3.5,3036,2614,37.760226,-122.449119,14,80,56.2,14,1477387.773
1517 Shrader St,San Francisco,CA,94117,2680000,4,2,2430,4356,37.761111,-122.450888,14,80,56.2,14,489663.769
1342 Hayes St,San Francisco,CA,94117,4885000,4,3.5,3765,3485,37.775178,-122.438595,14,80,56.2,14,2105606.219
1284 Stanyan St,San Francisco,CA,94117,3600000,2,2,1445,10018.8,37.759981,-122.451247,14,80,56.2,14,1694734.674
128 Woodland Ave,San Francisco,CA,94117,4200000,4,3.5,3514,2614,37.761983,-122.453218,14,80,56.2,14,1562183.756
267 Buena Vista Ave E,San Francisco,CA,94117,3295000,3,3,2400,2178,37.768005,-122.439133,14,80,56.2,14,1183367.485
2028 McAllister St,San Francisco,CA,94118,3895000,5,5.5,3585,3485,37.77717,-122.445536,25,85,67.1,25,1256221.741
318 6th Ave,San Francisco,CA,94118,1998800,3,3,2450,3049,37.782337,-122.46405,25,85,67.1,25,-104120.2947
708 2nd Ave,San Francisco,CA,94118,2999000,5,3,3418,3485,37.775323,-122.459275,25,85,67.1,25,437154.9441
631 12th Ave,San Francisco,CA,94118,1975000,4,3,2250,3920,37.776248,-122.470711,25,85,67.1,25,-61732.11638
414 12th Ave,San Francisco,CA,94118,2595000,3,3.5,2930,3049,37.780127,-122.470332,25,85,67.1,25,270954.3322
2736 Fulton St,San Francisco,CA,94118,2998000,5,5.5,3270,2831,37.774234,-122.461259,25,85,67.1,25,523818.1556
538 16th Ave,San Francisco,CA,94118,1595000,3,1,2340,3049,37.777856,-122.47456,25,85,67.1,25,-457245.73
415 Cornwall St,San Francisco,CA,94118,1695000,3,2,2584,2614,37.784594,-122.463833,25,85,67.1,25,-456692.3263
494 46th Ave,San Francisco,CA,94121,1599000,3,1.5,1444,3106,37.779294,-122.506977,35,80,69,35,82366.97788
841 47th Ave,San Francisco,CA,94121,2098000,5,4,2897,3485,37.77254,-122.508158,35,80,69,35,-99288.49587
255 28th Ave,San Francisco,CA,94121,3495000,4,3.5,3225,3049,37.784571,-122.488607,35,80,69,35,1159597.758
5440 Anza St,San Francisco,CA,94121,2590000,5,4,2828,3049,37.777431,-122.506774,35,80,69,35,437486.8686
414 36th Ave,San Francisco,CA,94121,3998000,5,4,3968,4356,37.781178,-122.496375,35,80,69,35,1281378.122
763 45th Ave,San Francisco,CA,94121,1000000,2,2,1285,3049,37.774133,-122.506129,35,80,69,35,-441687.1924
882 37th Ave,San Francisco,CA,94121,1199000,2,1,1565,2178,37.77235,-122.496814,35,80,69,35,-345729.5996
810 42nd Ave,San Francisco,CA,94121,1328000,3,3.5,1695,2178,37.77334,-122.502228,35,80,69,35,-276617.7214
762 48th Ave,San Francisco,CA,94121,1530000,4,3,2130,3049,37.774003,-122.508677,35,80,69,35,-300959.9847
546 33rd Ave,San Francisco,CA,94121,1798000,5,5,1975,3049,37.778759,-122.49291,35,80,69,35,38445.08375
571 34th Ave,San Francisco,CA,94121,1298000,2,1,1446,3049,37.778269,-122.494608,35,80,69,35,-217856.328
463 27th Ave,San Francisco,CA,94121,2000000,5,3,2282,3001,37.780737,-122.487261,35,80,69,35,100446.9173
723 43rd Ave,San Francisco,CA,94121,1450000,2,1,1300,3049,37.774917,-122.504038,35,80,69,35,1402.6397
794 48th Ave,San Francisco,CA,94121,1195000,3,2,1180,1742,37.77347,-122.508744,35,80,69,35,-159380.0311
595 44th Ave,San Francisco,CA,94121,1850000,4,3,2200,2178,37.777367,-122.505242,35,80,69,35,12739.95892
667 32nd Ave,San Francisco,CA,94121,1199000,2,1,1620,3049,37.776565,-122.492333,35,80,69,35,-397014.2757
1358 42nd Ave,San Francisco,CA,94122,1299999,4,2,1386,3000,37.761385,-122.501365,28,80,60.2,28,-206695.2428
1242 23rd Ave,San Francisco,CA,94122,1649000,3,1.5,1800,3049,37.764426,-122.481153,28,80,60.2,28,-49874.60421
1506 41st Ave,San Francisco,CA,94122,1095000,3,2,1464,1742,37.75859,-122.50017,28,80,60.2,28,-410150.8571
1427 35th Ave,San Francisco,CA,94122,1198000,2,1,1645,2614,37.760376,-122.494413,28,80,60.2,28,-416510.7341
1583 31st Ave,San Francisco,CA,94122,1395000,2,1,1440,2178,37.757738,-122.489892,28,80,60.2,28,-112083.1805
1398 19th Ave,San Francisco,CA,94122,2349000,5,4,2610,1742,37.761854,-122.47674,28,80,60.2,28,315912.3146
1255 38th Ave,San Francisco,CA,94122,1395000,3,2,1640,3049,37.763479,-122.497871,28,80,60.2,28,-230166.1465
1782 29th Ave,San Francisco,CA,94122,888000,3,2,1575,1742,37.754122,-122.486987,28,80,60.2,28,-668286.0996
1766 32nd Ave,San Francisco,CA,94122,2488000,4,4,4212,2997,37.754269,-122.490116,28,80,60.2,28,-320480.506
1539 41st Ave,San Francisco,CA,94122,1295000,2,2.5,1545,3049,37.758022,-122.500711,28,80,60.2,28,-286401.7497
1846 38th Ave,San Francisco,CA,94122,1100000,2,1,1301,2997,37.752417,-122.496439,28,80,60.2,28,-367447.2536
1828 29th Ave,San Francisco,CA,94122,1068000,2,1,1162,3049,37.753161,-122.486812,28,80,60.2,28,-336962.1291
1559 32nd Ave,San Francisco,CA,94122,1348888,2,2.5,2472,3049,37.758105,-122.491044,28,80,60.2,28,-659562.1266
1917 Judah St,San Francisco,CA,94122,1100000,2,1.5,1000,2614,37.761198,-122.482784,28,80,60.2,28,-217373.5139
1679 21st Ave,San Francisco,CA,94122,1780000,4,4.5,2309,3049,37.756419,-122.479102,28,80,60.2,28,-153359.6353
1483 19th Ave,San Francisco,CA,94122,1100000,3,2,1495,2326,37.760172,-122.477179,28,80,60.2,28,-436829.4345
1622 39th Ave,San Francisco,CA,94122,1588000,4,3,1725,3049,37.756556,-122.4978,28,80,60.2,28,-76323.76466
1578 34th Ave,San Francisco,CA,94122,1488000,4,2,1682,3049,37.757691,-122.492507,28,80,60.2,28,-156514.6166
4021 Kirkham St,San Francisco,CA,94122,975000,2,2,825,2614,37.758387,-122.504086,28,80,60.2,28,-261754.8883
1547 20th Ave,San Francisco,CA,94122,1300000,2,1,1304,3485,37.758884,-122.478202,28,80,60.2,28,-183366.9774
1883 40th Ave,San Francisco,CA,94122,998000,3,2,1214,2178,37.751719,-122.499152,28,80,60.2,28,-404969.984
1866 23rd Ave,San Francisco,CA,94122,1500000,2,1,1500,3049,37.752826,-122.480344,28,80,60.2,28,-60671.24601
2265 Union St,San Francisco,CA,94123,4900000,4,2.5,3545,3485,37.796672,-122.436514,25,88,69.7,25,2256244.657
154 Alhambra St,San Francisco,CA,94123,2495000,2,1,2164,3485,37.802181,-122.439086,25,88,69.7,25,487440.7829
1815 Vallejo St,San Francisco,CA,94123,4895000,5,3,3600,6534,37.796013,-122.427263,25,88,69.7,25,2135076.601
1650 Bay St,San Francisco,CA,94123,2995000,3,2.5,2399,2178,37.803198,-122.434241,25,88,69.7,25,918117.4715
114 Bridgeview Dr,San Francisco,CA,94124,899000,3,2,1475,3049,37.735102,-122.395737,27,65,24.6,27,-343861.4584
1262 Quesada Ave,San Francisco,CA,94124,749000,3,2,1356,2614,37.728922,-122.383124,27,65,24.6,27,-426081.9912
84 Exeter St,San Francisco,CA,94124,699000,3,2.5,1840,2614,37.721674,-122.399157,27,65,24.6,27,-699050.0758
1641-1643 Palou Ave,San Francisco,CA,94124,899000,5,3.5,1565,2614,37.734288,-122.391988,27,65,24.6,27,-372363.6641
1421 Ingalls St,San Francisco,CA,94124,1099000,5,3.5,2908,3920,37.729995,-122.382904,27,65,24.6,27,-829960.2265
11 Carpenter Ct,San Francisco,CA,94124,1248888,3,2.5,1838,3485,37.734915,-122.385281,27,65,24.6,27,-174188.1139
1091-1095 Gilman Ave,San Francisco,CA,94124,899000,3,1,3700,2614,37.719021,-122.390066,27,65,24.6,27,-1355910.897
1119 Hollister Ave,San Francisco,CA,94124,1150000,4,3,1700,2614,37.719752,-122.393021,27,65,24.6,27,-183555.1753
1426 Underwood Ave,San Francisco,CA,94124,799995,5,2,1596,3349,37.728185,-122.388488,27,65,24.6,27,-507545.5842
1484 Newcomb Ave,San Francisco,CA,94124,759000,3,1,798,2614,37.734166,-122.387392,27,65,24.6,27,-159023.745
1712 LA Salle Ave,San Francisco,CA,94124,699000,2,1,841,2614,37.738013,-122.390817,27,65,24.6,27,-238832.893
833 Ingerson Ave,San Francisco,CA,94124,1499000,5,3.5,2401,2614,37.717247,-122.390272,27,65,24.6,27,-157490.3556
1344 Thomas Ave,San Francisco,CA,94124,649000,2,1,1205,2614,37.727905,-122.386329,27,65,24.6,27,-456519.6343
1466 Revere Ave,San Francisco,CA,94124,859000,3,2,1789,2614,37.730454,-122.387489,27,65,24.6,27,-515555.5049
1647 Quesada Ave,San Francisco,CA,94124,798000,3,2,1670,2614,37.732597,-122.390681,27,65,24.6,27,-521734.8395
3225 Ingalls St,San Francisco,CA,94124,799000,2,2,825,2614,37.718626,-122.393074,27,65,24.6,27,-131462.0472
1819 Palou Ave,San Francisco,CA,94124,725000,3,1,790,2600,37.736324,-122.395582,27,65,24.6,27,-188921.2572
1370 Quesada Ave,San Francisco,CA,94124,814900,4,1.5,1211,2495,37.73006,-122.385129,27,65,24.6,27,-289838.6499
1947 Palou Ave,San Francisco,CA,94124,749000,2,1,1164,2614,37.737464,-122.397595,27,65,24.6,27,-337631.842
1630 Wallace Loop,San Francisco,CA,94124,755000,2,1,1064,2614,37.728026,-122.391546,27,65,24.6,27,-285564.0559
1216 Newhall St,San Francisco,CA,94124,899000,3,2,1472,1125,37.736562,-122.391699,27,65,24.6,27,-285162.7937
2083 Palou Ave,San Francisco,CA,94124,899000,3,2,1067,2614,37.738867,-122.400059,27,65,24.6,27,-142946.0895
1487 Underwood Ave,San Francisco,CA,94124,950000,5,2,1488,2614,37.728376,-122.389897,27,65,24.6,27,-285891.4688
1430 Oakdale Ave,San Francisco,CA,94124,1275000,3,2,1450,2614,37.733036,-122.387039,27,65,24.6,27,56614.28988
1670 Newcomb Ave,San Francisco,CA,94124,850000,2,1,1041,2495,37.736219,-122.390991,27,65,24.6,27,-176423.4136
6 Flora St,San Francisco,CA,94124,995000,3,2,1942,2178,37.732606,-122.394431,27,65,24.6,27,-437050.6255
1463 Thomas Ave,San Francisco,CA,94124,888000,2,1,995,2614,37.72876,-122.388908,27,65,24.6,27,-120777.2835
176 Topeka Ave,San Francisco,CA,94124,995000,2,1,1034,2178,37.73329,-122.398215,27,65,24.6,27,-18755.128
607 Los Palmos Dr,San Francisco,CA,94127,2495000,3,2.5,3440,6534,37.73457,-122.455765,30,72,68.2,30,-106889.2873
117 Robinhood Dr,San Francisco,CA,94127,3800000,5,4.5,4005,8276,37.737029,-122.456512,30,72,68.2,30,885932.9338
300 Molimo Dr,San Francisco,CA,94127,3300000,4,5.5,3338,4356,37.736928,-122.45185,30,72,68.2,30,809983.2342
88 Los Palmos Dr,San Francisco,CA,94127,1195000,3,2,1260,3920,37.735176,-122.447535,30,72,68.2,30,-324739.5792
190 San Benito Way,San Francisco,CA,94127,3175000,4,4,2975,4792,37.733409,-122.467305,30,72,68.2,30,839220.7056
608 Foerster St,San Francisco,CA,94127,1295000,2,2,1345,2614,37.733269,-122.448599,30,72,68.2,30,-224991.0018
35 Keystone Way,San Francisco,CA,94127,2398000,4,5,2429,3049,37.726377,-122.462859,30,72,68.2,30,365675.3955
59 Rosewood Dr,San Francisco,CA,94127,1585000,3,2.5,2395,4356,37.733678,-122.459893,30,72,68.2,30,-470597.5432
672 Teresita Blvd,San Francisco,CA,94127,1295000,2,1.5,1300,3049,37.736131,-122.446473,30,72,68.2,30,-217219.2998
222 Juanita Way,San Francisco,CA,94127,1225000,2,2,1395,3049,37.741202,-122.455841,30,72,68.2,30,-330983.6966
262 Evelyn Way,San Francisco,CA,94127,1049000,3,1,1006,2614,37.742411,-122.449065,30,72,68.2,30,-314821.2071
107 Marietta Dr,San Francisco,CA,94127,2695000,4,3.5,2355,2614,37.74114,-122.448048,30,72,68.2,30,709724.3589
2 Rosewood Dr,San Francisco,CA,94127,2695000,4,3,3387,4356,37.734595,-122.461343,30,72,68.2,30,182410.019
638 Foerster St,San Francisco,CA,94127,1295000,3,2,1744,2614,37.733612,-122.448602,30,72,68.2,30,-408801.4682
2623 15th Ave,San Francisco,CA,94127,2200000,3,2,2262,3049,37.739013,-122.471403,30,72,68.2,30,244608.5982
80 Keystone Way,San Francisco,CA,94127,1495000,3,2,1831,3485,37.727433,-122.462335,30,72,68.2,30,-274827.8359
234 Molimo Dr,San Francisco,CA,94127,1259000,4,2,1580,3049,37.737086,-122.450067,30,72,68.2,30,-382209.1008
279 Cresta Vista Dr,San Francisco,CA,94127,1699888,4,3,1828,4046,37.735518,-122.453827,30,72,68.2,30,-85270.18804
27 Santa Monica Way,San Francisco,CA,94127,2175000,3,2,2189,4792,37.739127,-122.465175,30,72,68.2,30,201313.504
543 30th St,San Francisco,CA,94131,995000,2,1,1300,1307,37.74163,-122.431874,25,75,48.9,25,-362416.5777
717 Panorama Dr,San Francisco,CA,94131,1570000,3,2,2012,8712,37.753038,-122.453254,25,75,48.9,25,-336016.7475
3040 Castro St,San Francisco,CA,94131,999000,2,1,865,3049,37.735298,-122.432684,25,75,48.9,25,-209916.4959
50 Farview Ct,San Francisco,CA,94131,1195000,2,2,1452,3920,37.754905,-122.450591,25,75,48.9,25,-310281.7939
17 Laidley St,San Francisco,CA,94131,749000,1,1,570,436,37.741392,-122.431684,25,75,48.9,25,-246174.3456
2131 Castro St,San Francisco,CA,94131,1995000,2,1,1386,2614,37.744379,-122.433094,25,75,48.9,25,559029.1404
129 Laidley St,San Francisco,CA,94131,1650000,2,2,1536,2614,37.739904,-122.42939,25,75,48.9,25,144927.4613
379 Dellbrook Ave,San Francisco,CA,94131,1399000,3,2.5,1588,5227,37.753016,-122.452498,25,75,48.9,25,-207869.9689
599 Oak Park Dr,San Francisco,CA,94131,2850000,5,3.5,3250,8712,37.756906,-122.46074,25,75,48.9,25,373664.061
310 Duncan St,San Francisco,CA,94131,3995000,4,5.5,3450,2614,37.746296,-122.427466,25,75,48.9,25,1608190.036
139 Charles St,San Francisco,CA,94131,1195000,2,2,1090,2610,37.738147,-122.425781,25,75,48.9,25,-104491.0514
205 Dellbrook Ave,San Francisco,CA,94131,1495000,4,2,1755,3920,37.749459,-122.453396,25,75,48.9,25,-149867.1857
55 Elk St,San Francisco,CA,94131,1495000,2,2,1500,2614,37.7365,-122.439465,25,75,48.9,25,6511.8643
527 29th St,San Francisco,CA,94131,1795000,3,2,2122,3049,37.743143,-122.431796,25,75,48.9,25,7011.433229
6 Portola Dr,San Francisco,CA,94131,1195000,3,2,1177,1742,37.750426,-122.444194,25,75,48.9,25,-118712.0025
22 Portola Dr,San Francisco,CA,94131,2495000,4,3.5,3029,1742,37.750184,-122.444029,25,75,48.9,25,328112.5995
119 Skyview Way,San Francisco,CA,94131,1265000,3,2,1418,3485,37.751688,-122.450248,25,75,48.9,25,-211659.9449
55 Woodhaven Ct,San Francisco,CA,94131,1398000,3,3,1745,3049,37.755893,-122.456264,25,75,48.9,25,-216313.0133
340 Warren Dr,San Francisco,CA,94131,1930000,3,3,1800,3920,37.75578,-122.461049,25,75,48.9,25,264402.3105
4019 Cesar Chavez St,San Francisco,CA,94131,2195000,3,2,1800,3049,37.747286,-122.429795,25,75,48.9,25,555349.7044
325 Laidley St,San Francisco,CA,94131,1995000,3,2,1996,3049,37.737338,-122.428467,25,75,48.9,25,265056.8437
99 Christopher Dr,San Francisco,CA,94131,1195000,3,2,1282,3049,37.756686,-122.457187,25,75,48.9,25,-206019.1638
153 Warren Dr,San Francisco,CA,94131,1688000,3,3,1800,3485,37.753319,-122.458939,25,75,48.9,25,35361.11228
224 Day St,San Francisco,CA,94131,2495000,4,2.5,2189,1742,37.743045,-122.427328,25,75,48.9,25,715082.0025
147 Stillings Ave,San Francisco,CA,94131,1498000,3,2,1700,2614,37.734342,-122.443147,25,75,48.9,25,-82623.70783
255 Crestmont Dr,San Francisco,CA,94131,2199000,4,3.5,2739,3049,37.757204,-122.460066,25,75,48.9,25,126773.1932
752 27th St,San Francisco,CA,94131,4495000,4,3.5,3496,3049,37.746533,-122.437061,25,75,48.9,25,2074040.053
1525 Noe St,San Francisco,CA,94131,2250000,3,2,1990,2614,37.744647,-122.430894,25,75,48.9,25,535779.7126
30 Conrad St,San Francisco,CA,94131,3295000,4,3.5,3018,2614,37.737845,-122.436477,25,75,48.9,25,1107202.872
265 Amber Dr,San Francisco,CA,94131,1798000,4,2.5,1953,2752,37.744371,-122.44346,25,75,48.9,25,96713.72528
351 Lakeshore Dr,San Francisco,CA,94132,1495000,4,3.5,1995,3136,37.73258,-122.4973,37,68,64.5,37,-207523.6746
230 Shields St,San Francisco,CA,94132,1298000,3,2,1961,2614,37.718125,-122.465025,37,68,64.5,37,-373310.0652
537 Garfield St,San Francisco,CA,94132,888000,2,1,1000,2178,37.719463,-122.467823,37,68,64.5,37,-327610.0491
140 Winston Dr,San Francisco,CA,94132,1888000,4,3.5,3112,5249,37.72706,-122.473946,37,68,64.5,37,-392047.852
901 Sloat Blvd,San Francisco,CA,94132,1549000,3,2,1805,4792,37.734202,-122.481385,37,68,64.5,37,-115327.6987
956 Junipero Serra Blvd,San Francisco,CA,94132,1148000,2,2,1602,3485,37.720424,-122.472964,37,68,64.5,37,-383874.1071
83 Forest View Dr,San Francisco,CA,94132,1299000,3,2,1565,2614,37.73272,-122.483929,37,68,64.5,37,-189881.6324
20 Ardenwood Way,San Francisco,CA,94132,1795000,3,3,2125,3485,37.735504,-122.472887,37,68,64.5,37,22191.37179
278 Vernon St,San Francisco,CA,94132,1495000,5,3,2140,2614,37.717518,-122.467756,37,68,64.5,37,-258771.4023
35 Dartmouth St,San Francisco,CA,94134,1049000,3,1,1575,2178,37.730589,-122.413283,30,65,32.9,30,-246201.3147
124 Garrison Ave,San Francisco,CA,94134,950000,5,3,1719,1424,37.709451,-122.413383,30,65,32.9,30,-389077.0037
1357 Brussels St,San Francisco,CA,94134,649950,1,1,488,1307,37.715669,-122.400562,30,65,32.9,30,-118547.0864
105 Yale St,San Francisco,CA,94134,918000,2,1,1121,1751,37.727763,-122.41762,30,65,32.9,30,-155333.0871
61 Somerset St,San Francisco,CA,94134,699000,2,1,800,1307,37.730519,-122.409011,30,65,32.9,30,-213228.5789
244 Goettingen St,San Francisco,CA,94134,1288000,4,2,2350,3049,37.728613,-122.407624,30,65,32.9,30,-390174.0506
2 Sparta St,San Francisco,CA,94134,1195000,5,3,2826,2614,37.718234,-122.403746,30,65,32.9,30,-689497.9105
241 Harkness Ave,San Francisco,CA,94134,848000,4,2,2223,3049,37.717141,-122.402157,30,65,32.9,30,-771667.9623
441 Wilde Ave,San Francisco,CA,94134,998000,3,2.5,1295,2614,37.717307,-122.40626,30,65,32.9,30,-181200.1058
215 Gambier St,San Francisco,CA,94134,1398000,4,4,2028,2178,37.726678,-122.421498,30,65,32.9,30,-105888.3856
1360 Wayland St,San Francisco,CA,94134,1398000,4,2,2262,2614,37.723386,-122.415638,30,65,32.9,30,-226675.5971
1174 Goettingen St,San Francisco,CA,94134,724500,2,1,780,1742,37.717513,-122.402931,30,65,32.9,30,-191473.8234
919 Silver Ave,San Francisco,CA,94134,849000,3,1,1131,2614,37.729042,-122.417044,30,65,32.9,30,-254648.9367
309 Sawyer St,San Francisco,CA,94134,758000,2,1,800,1742,37.714093,-122.413752,30,65,32.9,30,-167187.3806
130 Felton St,San Francisco,CA,94134,999000,3,2.5,2100,2614,37.729845,-122.406213,30,65,32.9,30,-551045.7837
256 Gambier St,San Francisco,CA,94134,888000,2,2,825,3049,37.726077,-122.421858,30,65,32.9,30,-87640.31307
106 Gaven St,San Francisco,CA,94134,849000,2,1,1375,2178,37.733797,-122.407885,30,65,32.9,30,-354065.7426
125 Schwerin St,San Francisco,CA,94134,888000,3,2,1050,2640,37.71165,-122.410567,30,65,32.9,30,-179108.5791
601 Woolsey St,San Francisco,CA,94134,799000,2,1,1600,3049,37.723698,-122.407604,30,65,32.9,30,-533665.6551
130 Hamilton St,San Francisco,CA,94134,998000,2,1,1605,3485,37.72915,-122.41112,30,65,32.9,30,-349957.6365
226 Brookdale Ave,San Francisco,CA,94134,799000,2,1,1040,2614,37.710545,-122.423216,30,65,32.9,30,-262727.2514
143 Gaven St,San Francisco,CA,94134,899000,2,1,1219,1742,37.733229,-122.408438,30,65,32.9,30,-219211.4043
1 Cielito Dr,San Francisco,CA,94134,689000,3,2,1304,2178,37.710154,-122.421495,30,65,32.9,30,-481357.6145
76 Cielito Dr,San Francisco,CA,94134,1300000,4,2,1174,2178,37.709423,-122.422265,30,65,32.9,30,189530.5074
