Address,City,State,Zip,Price,Beds,Baths,Home size,Lot size,Latitude,Longitude
2412 Palmer Ave,Belmont,CA,94002,1459000,3,2,1360,5001,37.516781,-122.304623
1909 Hillman Ave,Belmont,CA,94002,1595000,4,2,2220,3999,37.521972,-122.294079
641 Waltermire St,Belmont,CA,94002,899999,2,1,840,4234,37.520233,-122.273144
2706 Sequoia Way,Belmont,CA,94002,1588000,3,2,1860,5210,37.520192,-122.309437
1568 Winding Way,Belmont,CA,94002,1999000,4,3.5,2900,16117.2,37.52428,-122.291241
1440 5th Ave,Belmont,CA,94002,1249950,2,1,1170,5001,37.516227,-122.272763
1527 Ridge Rd,Belmont,CA,94002,1485000,3,2,1220,5502,37.522964,-122.290578
1249 North Rd,Belmont,CA,94002,1995000,4,3.5,2720,9601,37.523886,-122.286862
685 South Rd,Belmont,CA,94002,1988000,3,3,2610,11325.6,37.520637,-122.281695
2501 Lincoln Ave,Belmont,CA,94002,1598000,3,2,1508,6100,37.518087,-122.306904
1569 Sixth Ave,Belmont,CA,94002,2198000,5,3,3160,11761.2,37.514502,-122.270684
2021 Lyon Ave,Belmont,CA,94002,1695000,3,2.5,1540,3951,37.522995,-122.298666
600 Kingston Rd,Belmont,CA,94002,2700000,3,2,2080,13939.2,37.522085,-122.281924
2417 Hastings Dr,Belmont,CA,94002,1795000,3,2.5,2210,3938,37.505247,-122.296336
213 Visitacion Ave,Brisbane,CA,94005,698000,1,1,850,2614,37.682818,-122.403095
260 Monterey St,Brisbane,CA,94005,1438000,4,2.5,2380,3485,37.683129,-122.401917
478 Kings Rd,Brisbane,CA,94005,1588000,3,3,1790,8712,37.678221,-122.400926
271 Humboldt Rd,Brisbane,CA,94005,1498000,3,2.5,2200,5663,37.683422,-122.406506
1812 Easton Dr,Burlingame,CA,94010,2670000,4,4.5,2790,5449,37.583493,-122.371662
413 Hillsborough Blvd,Hillsborough,CA,94010,4995000,4,3.5,3126,15246,37.561393,-122.35351
1060 Macadamia Dr,Hillsborough,CA,94010,3499000,5,4.5,3650,21780,37.571956,-122.381913
240 Pinehill Rd,Hillsborough,CA,94010,17900000,3,5.5,8930,89733.6,37.557535,-122.366068
119 Bridge Rd,Hillsborough,CA,94010,13880000,6,8.5,10510,75358.8,37.562276,-122.332823
1277 Balboa Ave,Burlingame,CA,94010,3300000,4,4,2698,5001,37.584879,-122.369784
109 DE Sabla Rd,Hillsborough,CA,94010,9875000,6,6.5,7883,38768.4,37.563543,-122.332768
1120 Bromfield Rd,Hillsborough,CA,94010,6800000,5,4.5,4620,15681.6,37.562958,-122.356265
1431 DE Soto Ave,Burlingame,CA,94010,1995000,3,2,1400,5458,37.583335,-122.377653
115 Robin Rd,Hillsborough,CA,94010,6150000,4,4.5,4400,87120,37.560115,-122.362224
1061 San Raymundo Rd,Hillsborough,CA,94010,7950000,6,8,8210,167270.4,37.559162,-122.353372
933 Baileyana Rd,Hillsborough,CA,94010,6498000,4,3.5,3985,15681.6,37.57541,-122.376887
1540 Los Montes Dr,Burlingame,CA,94010,2375000,4,2.5,2540,10454.4,37.575551,-122.395664
2600 Skyfarm Dr,Hillsborough,CA,94010,6250000,4,4.5,3980,51400.8,37.559441,-122.376945
610 El Cerrito Ave,Hillsborough,CA,94010,5488000,4,4.5,5030,25264.8,37.557494,-122.34254
1441 Alvarado Ave,Burlingame,CA,94010,2895000,3,2.5,2730,9130,37.579399,-122.381681
28 Bloomfield Rd,Burlingame,CA,94010,4498000,5,4.5,3586,7850,37.580125,-122.337185
1525 Los Montes Dr,Burlingame,CA,94010,2968000,5,4.5,3200,8581,37.57443,-122.395533
2831 Adeline Dr,Burlingame,CA,94010,2088000,3,2,1750,9374,37.58049,-122.384883
1130 Southdown Rd,Hillsborough,CA,94010,2795000,3,2,2140,14810.4,37.549525,-122.353203
2714 Easton Dr,Burlingame,CA,94010,4450000,5,3.5,3983,7436,37.578216,-122.378424
300 Sierra Dr,Hillsborough,CA,94010,4750000,4,4.5,3920,30492,37.55848,-122.3413
1375 Black Mountain Rd,Hillsborough,CA,94010,2750000,4,3,2950,30492,37.546956,-122.356316
2816 Easton Dr,Burlingame,CA,94010,3988000,6,5,4592,11761.2,37.577629,-122.380617
15 Pilarcitos Ct,Hillsborough,CA,94010,3950000,5,4.5,3678,63162,37.53208,-122.360139
1308 Castillo Ave,Burlingame,CA,94010,4685000,4,3,3010,5998,37.580134,-122.376543
1541 Burlingame Ave,Burlingame,CA,94010,4895000,4,3.5,3524,8533,37.57489,-122.35068
2856 Adeline Dr,Burlingame,CA,94010,2595000,4,3,3420,37026,37.581942,-122.386352
20 Santa Felicia Ct,Hillsborough,CA,94010,4888000,6,6.5,5460,31798.8,37.5446,-122.335055
926 Baileyana Rd,Hillsborough,CA,94010,5798000,4,3.5,5275,15246,37.575396,-122.376229
463 El Arroyo Rd,Hillsborough,CA,94010,5750000,5,4.5,4650,27878.4,37.561287,-122.357211
430 Moseley Rd,Hillsborough,CA,94010,3980000,4,3,3392,30056.4,37.554255,-122.366276
45 W Avondale Rd,Hillsborough,CA,94010,3550000,5,3,3650,21780,37.545087,-122.358901
760 Crystal Springs Rd,Hillsborough,CA,94010,5395000,5,6.5,6175,27878.4,37.553632,-122.339017
1369 DE Soto Ave,Burlingame,CA,94010,2788000,4,3,2590,5998,37.582089,-122.375657
2116 Broadway,Burlingame,CA,94010,2380000,3,2,2040,5998,37.579594,-122.370662
150 Woodridge Rd,Hillsborough,CA,94010,4399000,6,4.5,5225,21780,37.546746,-122.349641
10 Bluebell Ln,Hillsborough,CA,94010,2999000,4,4,4580,23522.4,37.538101,-122.352787
320 Robinwood Ln,Hillsborough,CA,94010,5800000,4,5,5042,22651.2,37.550397,-122.363582
835 Longview Rd,Hillsborough,CA,94010,3490000,4,3,2940,19166.4,37.553235,-122.34377
2435 Summit Dr,Hillsborough,CA,94010,4398000,5,4,3870,16552.8,37.574844,-122.378382
790 Bowhill Rd,Hillsborough,CA,94010,3695000,4,3,3426,21780,37.553233,-122.341034
205 Glen Aulin Ln,Burlingame,CA,94010,4680000,5,4.5,4543,10018.8,37.571608,-122.388525
147 Oakridge Dr,Daly City,CA,94014,898000,3,2,1270,6098,37.706337,-122.428012
488 Willits St,Daly City,CA,94014,999950,4,2,1668,3001,37.696958,-122.468144
1003 Ocean View Ave,Daly City,CA,94014,1089000,3,2.5,2304,1647,37.702138,-122.459186
410 Ford St,Daly City,CA,94014,1188000,3,3,1770,2500,37.693655,-122.458581
267 Abbot Ave,Daly City,CA,94014,799888,2,1,1030,8002,37.694966,-122.460759
Nouveau,Daly City,CA,94014,1496995,4,3.5,2853,,37.700511,-122.413499
516 Southhill Blvd,Daly City,CA,94014,899000,3,2,1190,4591,37.705111,-122.439669
116 Woodrow St,Daly City,CA,94014,575000,2,1,770,3049,37.702763,-122.467878
2 Rosebud Ct,Daly City,CA,94014,1075000,3,3,1573,1307,37.686842,-122.462254
357 Winchester St,Daly City,CA,94014,775000,3,2,1795,2614,37.705638,-122.454465
262 Alta Vista Way,Daly City,CA,94014,949000,4,3,,5227,37.704323,-122.440502
41 Frankfort St,Daly City,CA,94014,799000,3,2,1390,2178,37.706855,-122.442132
271 Irvington St,Daly City,CA,94014,885000,4,2,1060,2500,37.706816,-122.455574
67 Royce Way,Daly City,CA,94014,1049000,3,2,1190,2300,37.691921,-122.454471
169 Parkview Ave,Daly City,CA,94014,1100000,3,2,2045,2614,37.70106,-122.465611
333 Peoria St,Daly City,CA,94014,699000,4,1,1130,4792,37.703009,-122.457669
143 Hillcrest Dr,Daly City,CA,94014,998000,5,3,1610,2500,37.706198,-122.465006
995 Ocean View Ave,Daly City,CA,94014,1349000,3,2.5,2265,1721,37.701838,-122.459199
35-39 Mission Cir,Daly City,CA,94014,1100000,3,2,1922,2675,37.706438,-122.462072
339 Frankfort St,Daly City,CA,94014,1150000,5,3,1990,3001,37.704563,-122.448722
1 Martin,Daly City,CA,94014,1521995,5,4.5,2914,2448,37.700645,-122.413588
Ascend,Daly City,CA,94014,1519995,4,3.5,3028,,37.700511,-122.413499
149 Abbot Ave,Daly City,CA,94014,845000,3,2,1160,2614,37.696804,-122.460812
225 Baltimore Way,Daly City,CA,94014,928000,2,1,1320,3485,37.707794,-122.434992
308 2nd Ave,Daly City,CA,94014,950000,3,2,1550,2178,37.687614,-122.463408
280 E Market St,Daly City,CA,94014,1000000,3,3,1300,1742,37.689529,-122.462458
1004 Ocean View Ave,Daly City,CA,94014,1264039,4,3.5,2209,1400,37.702278,-122.459486
1 Martin St,Daly City,CA,94014,1521995,5,4.5,2917,2450,37.700645,-122.413588
27 Westline Dr,Daly City,CA,94015,1095000,4,2,2250,3302,37.665708,-122.491148
54 Pinehaven Dr,Daly City,CA,94015,998888,3,1.5,1330,3798,37.694335,-122.489783
263 St Catherine Dr,Daly City,CA,94015,1088000,3,2.5,1720,3485,37.677777,-122.481378
141 Ashland Dr,Daly City,CA,94015,988000,3,1,1300,3202,37.697797,-122.491506
103 Village Ln,Daly City,CA,94015,1050000,2,1,1440,4792,37.693917,-122.474867
142 Belcrest Ave,Daly City,CA,94015,698000,3,1,107,3300,37.664659,-122.490835
144 Westmoor Ave,Daly City,CA,94015,979888,3,2,1410,3485,37.683469,-122.485283
119 Lycett Cir,Daly City,CA,94015,999888,4,3,1760,3920,37.655603,-122.465311
575 Verducci Dr,Daly City,CA,94015,995000,4,3,1790,3049,37.650607,-122.462161
144 Mirada Dr,Daly City,CA,94015,1390000,5,4,1995,3485,37.683174,-122.476037
1039 87th St,Daly City,CA,94015,998000,4,1,1620,3402,37.692624,-122.489984
19 Fairmont Dr,Daly City,CA,94015,988888,3,2,1430,3402,37.700386,-122.492919
824 Ellis Dr,Daly City,CA,94015,849000,2,1,910,5227,37.695659,-122.485014
98 Huntington Dr,Daly City,CA,94015,990000,3,2,1160,3485,37.68119,-122.485308
264 San Fernando Way,Daly City,CA,94015,980000,6,4,2170,3485,37.680877,-122.477281
63 Montebello Dr,Daly City,CA,94015,948888,3,1,1060,3960,37.665504,-122.488172
227 Del Prado Dr,Daly City,CA,94015,999000,4,3,1640,3485,37.6789,-122.47962
78 Norwood Ave,Daly City,CA,94015,989000,4,1,1030,4487,37.657944,-122.464641
620 Larchmont Dr,Daly City,CA,94015,1198000,4,2,1454,7261,37.68751,-122.483151
60 Westdale Ave,Daly City,CA,94015,895000,2,1,1220,3485,37.706551,-122.478206
35 Wembley Dr,Daly City,CA,94015,923000,3,2,1330,3485,37.662346,-122.470023
196 Castillejo Dr,Daly City,CA,94015,1150000,4,3,1520,3428,37.669478,-122.481289
1096 S Mayfair Ave,Daly City,CA,94015,1088000,4,2,1611,3485,37.692919,-122.493928
80 Beachside Ct,Daly City,CA,94015,1095000,3,2,1250,3920,37.662663,-122.490612
265 Westridge Ave,Daly City,CA,94015,1160000,5,3,1650,3485,37.689245,-122.494006
32 Fairlawn Ct,Daly City,CA,94015,1095000,4,3,1619,3485,37.696408,-122.485985
50 Parkwood Dr,Daly City,CA,94015,1250000,3,3,2010,3498,37.701005,-122.479466
47 Fairmont Dr,Daly City,CA,94015,1188000,3,2,1910,3485,37.700999,-122.493205
1321 S Mayfair Ave,Daly City,CA,94015,1180000,4,2,1759,3485,37.688107,-122.488881
82 Nelson Ct,Daly City,CA,94015,1049000,4,2,1470,3485,37.653224,-122.466714
425 Almeria Ave,El Granada,CA,94018,1399000,3,3,2950,4948,37.510296,-122.479271
281 Shelter Cove Dr,El Granada,CA,94018,1050000,3,2,1480,5401,37.512089,-122.487694
822 San Carlos Ave,El Granada,CA,94018,1680000,3,3.5,3308,9378,37.510922,-122.478182
246 San Clemente Rd,El Granada,CA,94018,1295000,3,2.5,2850,13503.6,37.506992,-122.465521
247 Columbus St,El Granada,CA,94018,1100000,3,1.5,1250,6251,37.505881,-122.477007
346 Carmel Ave,El Granada,CA,94018,1199000,4,3,1690,6098,37.507628,-122.476076
230 El Granada Blvd,El Granada,CA,94018,1295000,5,3.5,2610,6970,37.506019,-122.463408
301 Myrtle St,Half Moon Bay,CA,94019,949950,2,2,1160,7505,37.458826,-122.439504
2065 Touraine Ln,Half Moon Bay,CA,94019,1150000,3,2,1790,7292,37.486464,-122.443465
380 Burning Tree Ct,Half Moon Bay,CA,94019,1615000,4,2.5,3470,5502,37.433363,-122.42971
2165 Higgins Canyon Rd,Half Moon Bay,CA,94019,4750000,6,4.5,4500,422967.6,37.441217,-122.398012
630 Miramar Dr,Half Moon Bay,CA,94019,2390000,5,4,4140,9919,37.495994,-122.450164
11650 San Mateo Rd,Half Moon Bay,CA,94019,2750000,3,2,9999,1267160.4,37.492657,-122.389679
516 Highland Ave,Half Moon Bay,CA,94019,1475000,4,3,3083,8799,37.472595,-122.434001
221 Correas St,Half Moon Bay,CA,94019,2495000,5,4,3722,10018.8,37.46306,-122.441104
401 Antoinette Ln,Half Moon Bay,CA,94019,1279000,3,2,1460,5998,37.475874,-122.444865
400 Irish Ridge Rd,Half Moon Bay,CA,94019,2950000,3,3,2250,1742400,37.405953,-122.376164
320 Coronado Ave,Half Moon Bay,CA,94019,1525000,3,3,2250,8799,37.49724,-122.459268
437 Seymour St,Half Moon Bay,CA,94019,2000000,4,4.5,3862,9875,37.453516,-122.434747
41 Turnberry Rd,Half Moon Bay,CA,94019,2000000,4,2.5,3924,7200,37.437978,-122.435308
412 Magellan Ave,Half Moon Bay,CA,94019,1865000,4,3,3011,8799,37.498661,-122.458785
231 Shelter Cove Dr,El Granada,CA,94019,849000,2,1,1010,5502,37.5114,-122.487406
160 Turnberry Rd,Half Moon Bay,CA,94019,1769000,5,3,3266,7139,37.437393,-122.433425
48 Harvard Ave,Half Moon Bay,CA,94019,575000,2,1,672,3498,37.503444,-122.492558
217 Miramontes Ave,Half Moon Bay,CA,94019,1725000,4,2.5,3285,7405,37.464057,-122.441126
655 Santiago Ave,Half Moon Bay,CA,94019,1795000,3,3.5,2180,4848,37.500373,-122.461959
731 El Granada Blvd,El Granada,CA,94019,2198000,4,3.5,4424,8799,37.514695,-122.463044
4 Pinehurst Ln,Half Moon Bay,CA,94019,1459000,3,3,2374,4622,37.436191,-122.433442
688 Silver Ave,Half Moon Bay,CA,94019,1395000,3,2.5,2210,8712,37.476435,-122.430963
251 Granelli Ave,Half Moon Bay,CA,94019,1695000,4,2.5,2940,5502,37.459575,-122.439908
2029 Bordeaux Ln,Half Moon Bay,CA,94019,1299000,5,3,2710,8120,37.485478,-122.444735
14 Pinehurst Ln,Half Moon Bay,CA,94019,1465000,3,2.5,2715,4386,37.436079,-122.432517
324 Garcia Ave,Half Moon Bay,CA,94019,1600000,4,2,2098,8098,37.460368,-122.439957
262 San Clemente Rd,El Granada,CA,94019,1195000,3,2,1480,9901,37.507318,-122.465276
400 Redondo Beach Rd,Half Moon Bay,CA,94019,1349000,3,2,1122,7871,37.440137,-122.433238
28 Pinehurst Ln,Half Moon Bay,CA,94019,1575000,3,2.5,2300,4957,37.435741,-122.4315
2350 Winged Foot Rd,Half Moon Bay,CA,94019,1675000,4,3,2940,8207,37.431633,-122.432273
409 Saint Joseph Ave,Half Moon Bay,CA,94019,1299888,4,2,2060,5998,37.475678,-122.44369
2639 Higgins Canyon Rd,Half Moon Bay,CA,94019,1899000,4,2.5,2470,59241.6,37.438645,-122.391569
127 Carnoustie Dr,Half Moon Bay,CA,94019,2795000,4,4,4214,10018.8,37.439159,-122.436809
123 Ocean Ave,Half Moon Bay,CA,94019,2300000,1,2,2590,2500,37.463629,-122.441864
574 Kelly St,Half Moon Bay,CA,94019,1290000,2,2.5,1676,2474,37.463569,-122.430962
120 Hildebrand Rd,La Honda,CA,94020,2250000,4,3,3972,874684.8,37.325935,-122.262257
137 Shelden Rd,La Honda,CA,94020,699000,3,2,1310,30056.4,37.311694,-122.273913
13940 Pescadero Rd,La Honda,CA,94020,598000,2,1,700,19166.4,37.298959,-122.264164
30 Blind St,La Honda,CA,94020,898000,4,2,1730,26136,37.309328,-122.276524
126 Canada Vis,La Honda,CA,94020,1425000,3,2.5,3080,20473.2,37.319662,-122.269679
7145 LA Honda Rd,La Honda,CA,94020,1599000,1,1,837,444747.6,37.315604,-122.28855
138 Back Rd,La Honda,CA,94020,1750000,3,3.5,2580,192535.2,37.260359,-122.207863
265 Portola State Park Rd,La Honda,CA,94020,2298000,3,2,2720,519235.2,37.267417,-122.209415
8125 LA Honda Rd,La Honda,CA,94020,1249000,4,1,1410,59241.6,37.311208,-122.277887
26460 Taaffe Rd,Los Altos Hills,CA,94022,3650000,4,4.5,4247,43995.6,37.364845,-122.141915
725 University Ave,Los Altos,CA,94022,6800000,5,3,4122,20473.2,37.370134,-122.114851
27861 Natoma Rd,Los Altos Hills,CA,94022,16000000,6,7.5,8680,130680,37.370415,-122.153154
28011 Elena Rd,Los Altos Hills,CA,94022,30000000,6,5.5,8912,2090880,37.383114,-122.155711
3849 Page Mill Rd,Los Altos Hills,CA,94022,2980000,4,4.5,5008,435600,37.342421,-122.172902
706 Orange Ave,Los Altos,CA,94022,3550000,3,2.5,1478,6599,37.370507,-122.114623
27500 La Vida Real,Los Altos Hills,CA,94022,49990000,5,7.5,20982,349786.8,37.366472,-122.149971
12501 Zappettini Ct,Los Altos Hills,CA,94022,8888000,6,7.5,8625,49658.4,37.365122,-122.16531
27440 Sherlock Ct,Los Altos Hills,CA,94022,3395000,4,3,3085,45302.4,37.35916,-122.16082
780 S El Monte Ave,Los Altos,CA,94022,5495888,5,4.5,4450,17859.6,37.36731,-122.11343
27466 Sunrise Farm Rd,Los Altos Hills,CA,94022,9488000,6,5.5,6922,57063.6,37.366367,-122.154709
12661 Robleda Rd,Los Altos Hills,CA,94022,8950000,5,6,10332,87120,37.367848,-122.134455
212 Del Monte Ave,Los Altos,CA,94022,2098000,2,1,1055,6077,37.397408,-122.118699
111 S Gordon Way,Los Altos,CA,94022,6988000,5,4.5,4452,19166.4,37.365597,-122.148499
13830 Page Mill Rd,Los Altos Hills,CA,94022,12988888,4,2.5,2131,219106.8,37.382022,-122.164075
476 Mundell Way,Los Altos,CA,94022,3798000,4,3.5,2958,25264.8,37.400126,-122.124814
370 Juanita Way,Los Altos,CA,94022,3488000,5,3,2953,13068,37.391149,-122.12303
13981 Fremont Pines Ln,Los Altos Hills,CA,94022,8800000,5,4.5,5166,49222.8,37.38209,-122.131645
640 Palm Ave,Los Altos,CA,94022,2998000,3,3,2099,7466,37.371525,-122.114607
14433 Debell Rd,Los Altos Hills,CA,94022,3488000,3,3,2161,46609.2,37.386777,-122.131619
44 Mount Hamilton Ave,Los Altos,CA,94022,3888000,4,3,3045,8699,37.383019,-122.115226
308 Blue Oak Ln,Los Altos,CA,94022,3450000,4,3,3190,18295.2,37.385985,-122.124406
12190 Padre Ct,Los Altos Hills,CA,94022,6288000,5,4,6582,50529.6,37.357834,-122.138429
27760 Edgerton Rd,Los Altos Hills,CA,94022,5295000,4,6.5,7886,70567.2,37.370011,-122.157863
11511 Summit Wood Rd,Los Altos Hills,CA,94022,3955000,4,4,4408,78843.6,37.354112,-122.135579
169 E Portola Ave,Los Altos,CA,94022,3388000,5,3,2660,9714,37.39612,-122.110245
241 N Clark Ave,Los Altos,CA,94022,4298000,4,3.5,3080,11761.2,37.385766,-122.100803
26920 Almaden Ct,Los Altos Hills,CA,94022,3695000,4,2.5,3224,45738,37.362827,-122.151429
25725 Altamont Rd,Los Altos Hills,CA,94022,3998000,4,3.5,3405,52707.6,37.358227,-122.140972
25055 LA Loma Dr,Los Altos Hills,CA,94022,8488000,5,5.5,7614,43124.4,37.353843,-122.130826
26464 Taaffe Rd,Los Altos Hills,CA,94022,3398888,3,2,1513,41382,37.365421,-122.142512
200 University Ave,Los Altos,CA,94022,5999999,4,3.5,4116,26571.6,37.378275,-122.119868
25240 Cantata Way,Los Altos Hills,CA,94022,2300000,1,1,960,88426.8,37.364674,-122.119766
675 Jay St,Los Altos,CA,94022,6495000,6,4.5,4710,13068,37.386537,-122.097288
26088 Duval Way,Los Altos Hills,CA,94022,6998000,5,4.5,4307,43995.6,37.364548,-122.133894
1320 Harwalt Dr,Los Altos,CA,94024,2698000,4,2.5,2233,10890,37.358684,-122.065514
606 Paco Dr,Los Altos,CA,94024,2998000,3,2,1185,15246,37.37613,-122.099897
510 Sequoia Dr,Los Altos,CA,94024,2798000,2,1.5,1758,18730.8,37.339488,-122.074242
1161 Payne Dr,Los Altos,CA,94024,3988000,5,3,4223,13068,37.35604,-122.082259
11040 Eastbrook Ave,Los Altos,CA,94024,2998000,4,2.5,2310,43995.6,37.344882,-122.097732
931 Matts Ct,Los Altos,CA,94024,2199988,3,2.5,2164,11761.2,37.366321,-122.114367
1150 Grant Rd,Los Altos,CA,94024,1998000,3,2,1329,11325.6,37.362679,-122.078107
1416 Fallen Leaf Ln,Los Altos,CA,94024,2798000,4,2,1850,10890,37.356203,-122.064982
1347 Morton Ave,Los Altos,CA,94024,2758000,3,2,2018,10890,37.348457,-122.076273
690 Loyola Dr,Los Altos Hills,CA,94024,13950000,7,5.5,7700,164656.8,37.346061,-122.095835
1564 Vineyard Dr,Los Altos,CA,94024,2595000,3,3,2049,10890,37.336186,-122.070679
1909 Farndon Ave,Los Altos,CA,94024,2599000,3,2,1578,9736,37.344417,-122.066784
353 Costello Dr,Los Altos,CA,94024,3698000,3,2.5,2536,29620.8,37.362645,-122.107103
10718 Mora Dr,Los Altos Hills,CA,94024,19999888,6,8.5,9677,118047.6,37.338635,-122.097189
1849 Grant Park Ln,Los Altos,CA,94024,3488888,4,3.5,3260,11325.6,37.346136,-122.069568
1686 Dalehurst Ave,Los Altos,CA,94024,2298000,3,2,1243,14374.8,37.347829,-122.071482
1060 Golden Way,Los Altos,CA,94024,2995000,3,2,2034,10890,37.364015,-122.091239
1739 Joel Way,Los Altos,CA,94024,2598888,5,2.5,2490,11761.2,37.359404,-122.063753
23691 Camino Hermoso Dr,Los Altos Hills,CA,94024,5500000,3,1.5,2058,59241.6,37.344822,-122.11108
1495 Cedar Pl,Los Altos,CA,94024,2685000,4,2,2132,10890,37.335254,-122.071816
10450 Creston Dr,Los Altos,CA,94024,2988000,4,2.5,3033,14810.4,37.329238,-122.060093
2275 Deodara Dr,Los Altos,CA,94024,2675000,3,2.5,1669,12196.8,37.335354,-122.068815
1034 Golden Way,Los Altos,CA,94024,2999888,3,2,1837,10890,37.364439,-122.091239
816 S Springer Rd,Los Altos,CA,94024,2975000,5,3,2381,10018.8,37.368442,-122.096408
930 Hayman Pl,Los Altos,CA,94024,3350000,4,3.5,2615,11761.2,37.366299,-122.083032
1152 Miguel Ave,Los Altos,CA,94024,2450000,3,2,1546,9518,37.34968,-122.082051
11768 Maria Ln,Los Altos Hills,CA,94024,11998000,8,8.5,9500,98445.6,37.353725,-122.111121
1440 Highland View Ct,Los Altos,CA,94024,3398000,4,3,2818,13939.2,37.345906,-122.081791
300 Cuesta Dr,Los Altos,CA,94024,3800000,5,4.5,3395,13068,37.373804,-122.107421
1346 Arbor Ave,Los Altos,CA,94024,6495000,6,6.5,4936,17859.6,37.356478,-122.095617
1235 Nightingale Ct,Los Altos,CA,94024,4288000,5,3.5,3567,9574,37.350118,-122.079686
1653 Christina Dr,Los Altos,CA,94024,2865000,4,2,2076,10454.4,37.350831,-122.064171
1074 Riverside Dr,Los Altos,CA,94024,5600000,4,2,2639,29620.8,37.36389,-122.098424
1505 Fairway Dr,Los Altos,CA,94024,7998000,5,5.5,7200,26571.6,37.355542,-122.100607
1320 Harwalt Dr,Los Altos,CA,94024,2698000,4,2.5,2233,10890,37.358684,-122.065514
606 Paco Dr,Los Altos,CA,94024,2998000,3,2,1185,15246,37.37613,-122.099897
690 Loyola Dr,Los Altos Hills,CA,94024,13950000,7,5.5,7700,164656.8,37.346061,-122.095835
10718 Mora Dr,Los Altos Hills,CA,94024,19999888,6,8.5,9677,118047.6,37.338635,-122.097189
1161 Payne Dr,Los Altos,CA,94024,3988000,5,3,4223,13068,37.35604,-122.082259
11768 Maria Ln,Los Altos Hills,CA,94024,11998000,8,8.5,9500,98445.6,37.353725,-122.111121
11040 Eastbrook Ave,Los Altos,CA,94024,2998000,4,2.5,2310,43995.6,37.344882,-122.097732
510 Sequoia Dr,Los Altos,CA,94024,2798000,2,1.5,1758,18730.8,37.339488,-122.074242
1150 Grant Rd,Los Altos,CA,94024,1998000,3,2,1329,11325.6,37.362679,-122.078107
353 Costello Dr,Los Altos,CA,94024,3698000,3,2.5,2536,29620.8,37.362645,-122.107103
1416 Fallen Leaf Ln,Los Altos,CA,94024,2798000,4,2,1850,10890,37.356203,-122.064982
1347 Morton Ave,Los Altos,CA,94024,2758000,3,2,2018,10890,37.348457,-122.076273
1505 Fairway Dr,Los Altos,CA,94024,7998000,5,5.5,7200,26571.6,37.355542,-122.100607
931 Matts Ct,Los Altos,CA,94024,2199988,3,2.5,2164,11761.2,37.366321,-122.114367
1346 Arbor Ave,Los Altos,CA,94024,6495000,6,6.5,4936,17859.6,37.356478,-122.095617
1564 Vineyard Dr,Los Altos,CA,94024,2595000,3,3,2049,10890,37.336186,-122.070679
1909 Farndon Ave,Los Altos,CA,94024,2599000,3,2,1578,9736,37.344417,-122.066784
1495 Cedar Pl,Los Altos,CA,94024,2685000,4,2,2132,10890,37.335254,-122.071816
1060 Golden Way,Los Altos,CA,94024,2995000,3,2,2034,10890,37.364015,-122.091239
23691 Camino Hermoso Dr,Los Altos Hills,CA,94024,5500000,3,1.5,2058,59241.6,37.344822,-122.11108
1686 Dalehurst Ave,Los Altos,CA,94024,2298000,3,2,1243,14374.8,37.347829,-122.071482
1849 Grant Park Ln,Los Altos,CA,94024,3488888,4,3.5,3260,11325.6,37.346136,-122.069568
1034 Golden Way,Los Altos,CA,94024,2999888,3,2,1837,10890,37.364439,-122.091239
1653 Christina Dr,Los Altos,CA,94024,2865000,4,2,2076,10454.4,37.350831,-122.064171
1152 Miguel Ave,Los Altos,CA,94024,2450000,3,2,1546,9518,37.34968,-122.082051
1074 Riverside Dr,Los Altos,CA,94024,5600000,4,2,2639,29620.8,37.36389,-122.098424
300 Cuesta Dr,Los Altos,CA,94024,3800000,5,4.5,3395,13068,37.373804,-122.107421
930 Hayman Pl,Los Altos,CA,94024,3350000,4,3.5,2615,11761.2,37.366299,-122.083032
1739 Joel Way,Los Altos,CA,94024,2598888,5,2.5,2490,11761.2,37.359404,-122.063753
2275 Deodara Dr,Los Altos,CA,94024,2675000,3,2.5,1669,12196.8,37.335354,-122.068815
1235 Nightingale Ct,Los Altos,CA,94024,4288000,5,3.5,3567,9574,37.350118,-122.079686
816 S Springer Rd,Los Altos,CA,94024,2975000,5,3,2381,10018.8,37.368442,-122.096408
10450 Creston Dr,Los Altos,CA,94024,2988000,4,2.5,3033,14810.4,37.329238,-122.060093
1440 Highland View Ct,Los Altos,CA,94024,3398000,4,3,2818,13939.2,37.345906,-122.081791
127 Elliott Dr,Menlo Park,CA,94025,4498000,5,4,3078,9345,37.460695,-122.150098
556 Placitas Ave,Menlo Park,CA,94025,3695000,5,4,3650,10890,37.473579,-122.195253
4 Palm Ct,Menlo Park,CA,94025,5775000,5,4,3207,10454.4,37.437836,-122.193536
670 Magnolia St,Menlo Park,CA,94025,4850000,5,4.5,3035,10018.8,37.437714,-122.190285
304 Ivy Dr,Menlo Park,CA,94025,1199000,4,2,1437,5750,37.475555,-122.163528
524 9th Ave,Menlo Park,CA,94025,1725000,3,3,1610,5634,37.473679,-122.19881
1131 Hobart St,Menlo Park,CA,94025,5998000,6,6.5,5430,10018.8,37.441688,-122.194176
1127 Madera Ave,Menlo Park,CA,94025,1350000,3,2,1540,5750,37.472069,-122.157715
1050 Louise St,Menlo Park,CA,94025,6988000,6,7.5,6412,16117.2,37.435904,-122.197096
614 10th Ave,Menlo Park,CA,94025,1295000,3,1,1100,5350,37.474852,-122.196973
1145 Almanor Ave,Menlo Park,CA,94025,1100000,3,2,1220,5290,37.474816,-122.162458
653 San Benito Ave,Menlo Park,CA,94025,1395000,3,2,1250,3959,37.474636,-122.194588
2312 Loma Prieta Ln,Menlo Park,CA,94025,6488000,5,5.5,5526,13503.6,37.426249,-122.204037
1110 Madera Ave,Menlo Park,CA,94025,998000,3,1,1040,6000,37.471376,-122.157408
1323 Sevier Ave,Menlo Park,CA,94025,998000,3,1,1130,5750,37.477233,-122.156122
1115 Trinity Dr,Menlo Park,CA,94025,5699000,4,3.5,4017,16552.8,37.427231,-122.214742
2111 Manzanita Ave,Menlo Park,CA,94025,3800000,4,4,2710,6000,37.435104,-122.209544
575 6th Ave,Menlo Park,CA,94025,1349000,3,1,1200,4544,37.475663,-122.201597
765 Cotton St,Menlo Park,CA,94025,6488000,6,4.5,5088,10890,37.440176,-122.189584
193 Willow Rd,Menlo Park,CA,94025,5388888,5,5,3931,13939.2,37.456704,-122.163382
315 Haight St,Menlo Park,CA,94025,1498000,2,1,1140,6500,37.467015,-122.154387
1251 Valparaiso Ave,Menlo Park,CA,94025,5998000,5,3.5,4170,24829.2,37.446599,-122.194833
985 Siskiyou Dr,Menlo Park,CA,94025,3800000,3,2.5,2540,13939.2,37.422763,-122.212093
660 Vine St,Menlo Park,CA,94025,5725000,5,4,3121,10018.8,37.430989,-122.194432
2316 Blueridge Ave,Menlo Park,CA,94025,3085000,3,2.5,2045,11325.6,37.425106,-122.202317
2044 Ashton Ave,Menlo Park,CA,94025,2698000,4,2,1925,6000,37.43377,-122.202707
30 Sharon Ct,Menlo Park,CA,94025,2950000,3,2,1620,11325.6,37.42868,-122.199345
401 Oak Ct,Menlo Park,CA,94025,3499000,4,3,2320,16117.2,37.458141,-122.148008
3018 Alameda De Las Pulgas,Menlo Park,CA,94025,1899999,3,2,1320,6192,37.436419,-122.211727
520 Barron St,Menlo Park,CA,94025,2439000,3,2.5,1580,2841,37.453898,-122.174341
626 Partridge Ave Unit 2,Menlo Park,CA,94025,2495000,3,2.5,1883,4740,37.44875,-122.175843
151 Elliott Dr,Menlo Park,CA,94025,2388000,3,2,1562,6200,37.460351,-122.150245
204 Chester St,Menlo Park,CA,94025,1688000,2,1,1090,6216,37.46552,-122.15254
2071 Valparaiso Ave,Menlo Park,CA,94025,1995000,3,2.5,2000,6000,37.434284,-122.205255
501 Laurel Ave,Menlo Park,CA,94025,3995000,4,3,2650,6625,37.460677,-122.155035
655 Gilbert Ave,Menlo Park,CA,94025,3988888,4,3.5,2776,8925,37.460212,-122.16183
719 17th Ave,Menlo Park,CA,94025,2100000,4,3,2060,5084,37.474304,-122.190531
651 18th Ave,Menlo Park,CA,94025,1498000,3,2,1440,5350,37.472913,-122.190411
161 Willow Rd,Menlo Park,CA,94025,3449000,5,4,2766,8660,37.456006,-122.163564
1040 Ringwood Ave,Menlo Park,CA,94025,1988000,4,2,1480,6000,37.472928,-122.166325
1969 Palo Alto Way,Menlo Park,CA,94025,2698000,3,1,1430,6550,37.428478,-122.192339
440 9th Ave,Menlo Park,CA,94025,2150000,3,2,1730,9300,37.471271,-122.199915
671 Live Oak Ave,Menlo Park,CA,94025,2298888,3,1,980,5650,37.451295,-122.181096
190 Almendral Ave,Atherton,CA,94027,22500000,6,7.5,11160,43560,37.453006,-122.214224
1 Heritage Ct,Atherton,CA,94027,4799888,5,5.5,4293,21344.4,37.469346,-122.192484
302 Stevick Dr,Atherton,CA,94027,5500000,3,2.5,2320,43560,37.441265,-122.220404
87 Patricia Dr,Atherton,CA,94027,19500000,5,6.5,6535,50094,37.461174,-122.212866
490 Walsh Rd,Atherton,CA,94027,7999000,5,4.5,4478,87120,37.425448,-122.226056
1 Holbrook Ln,Atherton,CA,94027,5500000,6,5,4235,13068,37.46971,-122.193321
69 Tuscaloosa Ave,Atherton,CA,94027,26000000,5,8.5,11155,74487.6,37.458682,-122.204894
118 Selby Ln,Atherton,CA,94027,14999000,6,7.5,15600,53578.8,37.461718,-122.218245
226 Park Ln,Atherton,CA,94027,16988000,3,3.5,3520,62290.8,37.446345,-122.202458
49 Fairview Ave,Atherton,CA,94027,16488000,6,8.5,11250,45738,37.4416,-122.212619
236 Camino Al Lago,Atherton,CA,94027,15995000,6,5,4910,87120,37.442656,-122.206575
96 Heather Dr,Atherton,CA,94027,13880000,8,8.5,14704,42688.8,37.467612,-122.187897
74 Atherton Ave,Atherton,CA,94027,12900000,4,5.5,6296,65340,37.45769,-122.204039
1175 Osborn Ave,Atherton,CA,94027,2149888,3,3,1705,7819,37.454262,-122.218999
95 Tallwood Ct,Atherton,CA,94027,6588000,3,3.5,2660,76665.6,37.433148,-122.214499
48 Watkins Ave,Atherton,CA,94027,2488000,3,2,1842,6551,37.460703,-122.194582
10 DE Bell Dr,Atherton,CA,94027,5500000,5,5.5,3760,56192.4,37.462651,-122.178295
3 Irving Ave,Atherton,CA,94027,4595000,4,3,3210,40075.2,37.468555,-122.190937
59 Almendral Ave,Atherton,CA,94027,8500000,5,4,3790,46173.6,37.460408,-122.206489
46 Lilac Dr,Atherton,CA,94027,6695000,3,2,2680,41817.6,37.474366,-122.181676
2 Fredrick Ave,Atherton,CA,94027,7295000,5,3.5,4010,38768.4,37.472005,-122.17206
1 Queens Ct,Atherton,CA,94027,8100000,4,4.5,3600,44431.2,37.445368,-122.217639
3 Shearer Dr,Atherton,CA,94027,12280000,6,8.5,8600,28749.6,37.466155,-122.212112
24 Stockbridge Ave,Atherton,CA,94027,11888000,6,6.5,8299,28749.6,37.464752,-122.209185
333 Fletcher Dr,Atherton,CA,94027,9380000,4,5.5,6531,43995.6,37.439668,-122.223226
98 Monte Vista Ave,Atherton,CA,94027,8250000,3,2,1815,49222.8,37.442484,-122.207656
76 Fairview Ave,Atherton,CA,94027,11380000,5,4.5,7109,39639.6,37.439962,-122.21215
129 Karen Way,Atherton,CA,94027,6925000,3,3.5,4799,52272,37.441857,-122.219771
385 Fletcher Dr,Atherton,CA,94027,14900000,6,7.5,9742,38768.4,37.438475,-122.224324
1 Odell Pl,Atherton,CA,94027,7895000,5,5.5,5885,33976.8,37.461742,-122.20035
226 Park Ln,Atherton,CA,94027,16988000,3,3.5,3520,62290.8,37.446345,-122.202458
302 Stevick Dr,Atherton,CA,94027,5500000,3,2.5,2320,43560,37.441265,-122.220404
190 Almendral Ave,Atherton,CA,94027,22500000,6,7.5,11160,43560,37.453006,-122.214224
236 Camino Al Lago,Atherton,CA,94027,15995000,6,5,4910,87120,37.442656,-122.206575
1 Heritage Ct,Atherton,CA,94027,4799888,5,5.5,4293,21344.4,37.469346,-122.192484
98 Monte Vista Ave,Atherton,CA,94027,8250000,3,2,1815,49222.8,37.442484,-122.207656
59 Almendral Ave,Atherton,CA,94027,8500000,5,4,3790,46173.6,37.460408,-122.206489
490 Walsh Rd,Atherton,CA,94027,7999000,5,4.5,4478,87120,37.425448,-122.226056
10 DE Bell Dr,Atherton,CA,94027,5500000,5,5.5,3760,56192.4,37.462651,-122.178295
30 Southgate St,Atherton,CA,94027,3050000,3,2,2018,6750,37.461696,-122.206366
1 Holbrook Ln,Atherton,CA,94027,5500000,6,5,4235,13068,37.46971,-122.193321
74 Atherton Ave,Atherton,CA,94027,12900000,4,5.5,6296,65340,37.45769,-122.204039
87 Patricia Dr,Atherton,CA,94027,19500000,5,6.5,6535,50094,37.461174,-122.212866
333 Fletcher Dr,Atherton,CA,94027,9380000,4,5.5,6531,43995.6,37.439668,-122.223226
2 Fredrick Ave,Atherton,CA,94027,7295000,5,3.5,4010,38768.4,37.472005,-122.17206
76 Fairview Ave,Atherton,CA,94027,11380000,5,4.5,7109,39639.6,37.439962,-122.21215
54 Reservoir Rd,Atherton,CA,94027,5495000,4,3,2785,50529.6,37.430296,-122.221897
3 Shearer Dr,Atherton,CA,94027,11800000,6,8.5,8600,28749.6,37.466155,-122.212112
1175 Osborn Ave,Atherton,CA,94027,2149888,3,3,1705,7820,37.454262,-122.218999
46 Lilac Dr,Atherton,CA,94027,6695000,3,2,2680,41817.6,37.474366,-122.181676
129 Karen Way,Atherton,CA,94027,6925000,3,3.5,4799,52272,37.441857,-122.219771
69 Tuscaloosa Ave,Atherton,CA,94027,26000000,5,8.5,11155,74487.6,37.458682,-122.204894
14 Flood Cir,Atherton,CA,94027,8199000,5,5.5,5110,36154.8,37.467759,-122.181401
49 Fairview Ave,Atherton,CA,94027,16488000,6,8.5,11250,45738,37.4416,-122.212619
118 Selby Ln,Atherton,CA,94027,14999000,6,7.5,15600,53578.8,37.461718,-122.218245
385 Fletcher Dr,Atherton,CA,94027,14900000,6,7.5,9742,38768.4,37.438475,-122.224324
3 Irving Ave,Atherton,CA,94027,4595000,4,3,3210,40075.2,37.468555,-122.190937
96 Heather Dr,Atherton,CA,94027,13880000,8,8.5,14704,42688.8,37.467612,-122.187897
95 Tallwood Ct,Atherton,CA,94027,6588000,3,3.5,2660,76665.6,37.433148,-122.214499
24 Stockbridge Ave,Atherton,CA,94027,11888000,6,6.5,8299,28749.6,37.464752,-122.209185
370 Golden Oak Dr,Portola Valley,CA,94028,3599000,3,2,2270,46173.6,37.385861,-122.19971
1061 Los Trancos Rd,Portola Valley,CA,94028,899000,2,1,780,14810.4,37.349838,-122.198658
880 Westridge Dr,Portola Valley,CA,94028,13750000,5,5,6610,425581.2,37.394975,-122.21552
80 Golden Oak Dr,Portola Valley,CA,94028,8880000,5,5.5,4368,64904.4,37.378606,-122.2012
210 Escobar Rd,Portola Valley,CA,94028,3375000,3,2.5,2785,113256,37.398999,-122.208633
4 Russell Ave,Portola Valley,CA,94028,1499500,3,1,1290,7802,37.384216,-122.237333
1019 Los Trancos Rd,Portola Valley,CA,94028,1595000,3,1.5,1180,9361,37.350174,-122.197759
116 Russell Ave,Portola Valley,CA,94028,1895000,3,2,1821,5998,37.384055,-122.240219
190 Vista Verde Way,Portola Valley,CA,94028,3850000,5,6,4400,43995.6,37.342457,-122.195174
260 S Castanya Way,Portola Valley,CA,94028,2525000,3,2,1652,8799,37.397758,-122.195078
228 Canyon Dr,Portola Valley,CA,94028,1999000,3,2,1410,10018.8,37.371186,-122.212051
167 Ramoso Rd,Portola Valley,CA,94028,5495000,6,5,3780,110642.4,37.393621,-122.224673
131 Gabarda Way,Portola Valley,CA,94028,2495000,3,2,1740,8198,37.399129,-122.196292
805 LA Mesa Dr,Portola Valley,CA,94028,2995000,3,2.5,2490,13503.6,37.396654,-122.204324
23 Valley Oak St,Portola Valley,CA,94028,3995000,4,3.5,4250,27442.8,37.367652,-122.202461
9 Valley Oak St,Portola Valley,CA,94028,3295000,5,3,3120,20037.6,37.362695,-122.206406
180 Cherokee Way,Portola Valley,CA,94028,3995000,3,5,3490,48787.2,37.380423,-122.211609
100 Alamos Rd,Portola Valley,CA,94028,4900000,3,2,3600,108900,37.391976,-122.195728
2 Portola Green Cir,Portola Valley,CA,94028,2795000,4,2,2330,10018.8,37.373284,-122.213472
1236 Los Trancos Rd,Portola Valley,CA,94028,4495000,5,3.5,3394,14810.4,37.346393,-122.198331
1195 Westridge Dr,Portola Valley,CA,94028,4500000,3,2.5,2350,88426.8,37.385783,-122.221433
1061 Los Trancos Rd,Portola Valley,CA,94028,899000,2,1,780,14810.4,37.349838,-122.198658
260 S Castanya Way,Portola Valley,CA,94028,2525000,3,2,1652,8800,37.397758,-122.195078
370 Golden Oak Dr,Portola Valley,CA,94028,3599000,3,2,2270,46173.6,37.385861,-122.19971
4 Russell Ave,Portola Valley,CA,94028,1499500,3,1,1290,7800,37.384216,-122.237333
210 Escobar Rd,Portola Valley,CA,94028,3375000,3,2.5,2785,113256,37.398999,-122.208633
23 Valley Oak St,Portola Valley,CA,94028,3995000,4,3.5,4250,27442.8,37.367652,-122.202461
9 Valley Oak St,Portola Valley,CA,94028,3195000,5,3,3120,20037.6,37.362695,-122.206406
1019 Los Trancos Rd,Portola Valley,CA,94028,1595000,3,1.5,1180,9360,37.350174,-122.197759
167 Ramoso Rd,Portola Valley,CA,94028,5495000,6,5,3780,110642.4,37.393621,-122.224673
131 Gabarda Way,Portola Valley,CA,94028,2450000,3,2,1740,8200,37.399129,-122.196292
180 Cherokee Way,Portola Valley,CA,94028,3790000,3,5,3490,48787.2,37.380423,-122.211609
880 Westridge Dr,Portola Valley,CA,94028,13750000,5,5,6610,425581.2,37.394975,-122.21552
228 Canyon Dr,Portola Valley,CA,94028,1999000,3,2,1410,10018.8,37.371186,-122.212051
100 Alamos Rd,Portola Valley,CA,94028,4900000,3,2,3600,108900,37.391976,-122.195728
116 Russell Ave,Portola Valley,CA,94028,1895000,3,2,1821,6000,37.384055,-122.240219
2 Portola Green Cir,Portola Valley,CA,94028,2795000,4,2,2330,10018.8,37.373284,-122.213472
139 Crescent Ave,Portola Valley,CA,94028,2680000,4,3.5,3445,20908.8,37.372007,-122.213159
80 Golden Oak Dr,Portola Valley,CA,94028,8480000,5,5.5,4368,64904.4,37.378606,-122.2012
412 Juanita Ave,Millbrae,CA,94030,1895000,3,2,1250,12196.8,37.610712,-122.410566
14 Cypress Ct,Millbrae,CA,94030,1498000,3,2,1710,5850,37.606228,-122.403165
15 Evergreen Ct,Millbrae,CA,94030,1688000,3,2,1970,6020,37.599643,-122.414054
870 Robin Ln,Millbrae,CA,94030,1598000,4,2,1890,5131,37.606071,-122.421031
1330 Millbrae Ave,Millbrae,CA,94030,2448000,3,2.5,2910,20037.6,37.588214,-122.407407
835 Murchison Dr,Millbrae,CA,94030,2799000,4,3.5,3100,8738,37.591311,-122.392591
1160 Millbrae Ave,Millbrae,CA,94030,1988888,3,2.5,2510,8999,37.592607,-122.401928
526 Anita Ln,Millbrae,CA,94030,2100000,5,5.5,2030,5667,37.599511,-122.406852
33 Estates Dr,Millbrae,CA,94030,2599000,4,3,2418,7928,37.595231,-122.415071
890 Crestview Dr,Millbrae,CA,94030,1768000,4,2,1851,8712,37.596125,-122.416383
1132 Millbrae Ave,Millbrae,CA,94030,2798000,5,3.5,3900,7405,37.593066,-122.400319
841 Clearfield Dr,Millbrae,CA,94030,2799000,4,4,3157,7405,37.596347,-122.409927
120 Del Centro St,Millbrae,CA,94030,1888888,4,3,2510,5663,37.590664,-122.410802
881 Morningside Dr,Millbrae,CA,94030,1848888,4,3,2710,5998,37.598222,-122.410147
1116 Elmwood Dr,Millbrae,CA,94030,1728000,4,3,1975,5323,37.604275,-122.417485
44 Camino Alto,Millbrae,CA,94030,1630000,3,2,1970,5998,37.597055,-122.403827
610 Hillcrest Blvd,Millbrae,CA,94030,1699000,2,2,2050,5663,37.597267,-122.397027
95 Colorados Dr,Millbrae,CA,94030,1698000,3,2.5,1840,7148,37.593637,-122.408674
898 Hillcrest Blvd,Millbrae,CA,94030,2150000,4,2.5,2267,5153,37.594838,-122.399681
721 Taylor Blvd,Millbrae,CA,94030,1988000,3,2,2173,5685,37.597479,-122.398662
1179 Ridgewood Dr,Millbrae,CA,94030,1588000,3,2,1500,5641,37.60619,-122.417931
496 6th St,Montara,CA,94037,3100000,4,2.5,9763,40075.2,37.540374,-122.51015
771 Rivera Rd,Montara,CA,94037,10000000,3,2.5,2600,10715760,37.545572,-122.493579
659 George St,Montara,CA,94037,1100000,3,2,1952,6251,37.541083,-122.505788
586 6th St,Montara,CA,94037,1345000,4,2.5,2220,5001,37.539666,-122.5079
741 Harte St,Montara,CA,94037,1165000,3,2,1800,6251,37.539128,-122.506211
320 10th St,Montara,CA,94037,1175000,3,2,1580,8999,37.539169,-122.514878
202 11th St,Montara,CA,94037,1978000,4,3,3087,8999,37.539011,-122.516387
496 6th St,Montara,CA,94037,3100000,4,2.5,9763,40075.2,37.540374,-122.51015
771 Rivera Rd,Montara,CA,94037,10000000,3,2.5,2600,10715760,37.545572,-122.493579
659 George St,Montara,CA,94037,1100000,3,2,1952,6251,37.541083,-122.505788
586 6th St,Montara,CA,94037,1345000,4,2.5,2220,5001,37.539666,-122.5079
741 Harte St,Montara,CA,94037,1165000,3,2,1800,6251,37.539128,-122.506211
320 10th St,Montara,CA,94037,1175000,3,2,1580,8999,37.539169,-122.514878
202 11th St,Montara,CA,94037,1978000,4,3,3087,8999,37.539011,-122.516387
2000 Vallemar St,Moss Beach,CA,94038,1995000,2,2,720,3498,37.533412,-122.518167
683 Buena Vista St,Moss Beach,CA,94038,1098000,3,2,1580,8751,37.531892,-122.512248
675 Lancaster Blvd,Moss Beach,CA,94038,975000,4,2,1680,5998,37.528314,-122.509071
111 San Lucas Ave,Moss Beach,CA,94038,1499000,4,3,2310,5001,37.515901,-122.51147
723 Sierra St,Moss Beach,CA,94038,1375000,4,3,2853,5001,37.530925,-122.512249
198 Arbor Ln,Moss Beach,CA,94038,2999000,2,2,2400,13939.2,37.526796,-122.516501
827 Stetson St,Moss Beach,CA,94038,1288000,3,2,2150,5001,37.528919,-122.511592
649 Lancaster Blvd,Moss Beach,CA,94038,1199000,3,2.5,1650,5001,37.528073,-122.509523
970 Etheldore St,Moss Beach,CA,94038,1050000,3,2.5,1520,6974,37.525964,-122.509791
801 Kelmore St,Moss Beach,CA,94038,1075000,4,3,1980,7200,37.529773,-122.511635
101 Niagra Ave,Moss Beach,CA,94038,4190000,3,3.5,3506,8176,37.53291,-122.51833
615 Kelmore St,Moss Beach,CA,94038,1199000,4,2.5,2100,3698,37.531091,-122.514105
1037 Pearl Ave,Moss Beach,CA,94038,1165000,3,2,1960,8499,37.524629,-122.509021
990 Buena Vista St,Moss Beach,CA,94038,1300000,2,2,1395,115869.6,37.529459,-122.508029
514 Buena Vista St,Moss Beach,CA,94038,1200000,3,3,1945,5001,37.532565,-122.514696
223 Vermont Ave,Moss Beach,CA,94038,1198000,4,3,1706,5998,37.523691,-122.514235
551 Lancaster Blvd,Moss Beach,CA,94038,1199000,5,3,1990,5001,37.526803,-122.511111
1325 Marilyn Pl,Mountain View,CA,94040,2988888,4,3,1824,12632.4,37.380563,-122.09459
835 Runningwood Cir,Mountain View,CA,94040,1898000,3,2,1801,5985,37.370538,-122.062891
1306 Lubich Dr,Mountain View,CA,94040,2550000,3,2.5,1722,8803,37.363427,-122.064278
479 Carmelita Dr,Mountain View,CA,94040,4388000,5,5.5,3899,10890,37.374894,-122.072451
142 College Ave,Mountain View,CA,94040,1899000,4,2,1519,5057,37.402939,-122.100122
1242 Kern Ct,Mountain View,CA,94040,2799000,5,3,2817,10454.4,37.365295,-122.065609
1355 Ernestine Ln,Mountain View,CA,94040,1988000,3,2,1218,5070,37.386068,-122.091392
1135 Blackfield Way,Mountain View,CA,94040,2999888,5,3.5,2595,6042,37.389698,-122.099176
13134 Franklin Ave,Mountain View,CA,94040,1800000,3,1,1182,10454.4,37.368611,-122.068036
1175 Solana Dr,Mountain View,CA,94040,2250000,3,2,1322,6599,37.389457,-122.10333
100 Sleeper Ave,Mountain View,CA,94040,2890000,4,2.5,3047,9805,37.371758,-122.077524
693 Lola Ln,Mountain View,CA,94040,2399000,3,2,1680,8224,37.375339,-122.082874
2110 California St,Mountain View,CA,94040,1798000,4,2.5,1790,2814,37.39939,-122.100354
1349 Isabelle Ave,Mountain View,CA,94040,2698000,4,2.5,1942,10454.4,37.378404,-122.088832
1501 Lloyd Way,Mountain View,CA,94040,2475000,3,1.5,1364,5162,37.386735,-122.093471
1378 California St,Mountain View,CA,94041,6000000,4,2,2425,8499,37.394046,-122.086834
394 Mariposa Ave,Mountain View,CA,94041,3788000,7,5.5,3561,7701,37.395381,-122.089559
1357 Villa St,Mountain View,CA,94041,1295000,2,1,960,3598,37.396018,-122.085299
1242 Snow St,Mountain View,CA,94041,1499000,2,2,1112,3750,37.38959,-122.087646
416 Palo Alto Ave,Mountain View,CA,94041,1900000,2,1,1104,5763,37.393768,-122.087591
1960 San Ramon Ave,Mountain View,CA,94043,1470000,3,2.5,1196,2766,37.410039,-122.090173
422 Whisman Ct,Mountain View,CA,94043,1650000,3,2.5,1584,2905,37.400334,-122.059403
910 San Marcos Cir,Mountain View,CA,94043,1929000,4,2,1576,5998,37.406874,-122.085036
317 Serra San Bruno,Mountain View,CA,94043,1698000,3,2.5,1715,4186,37.407225,-122.09472
1601 Morgan St,Mountain View,CA,94043,1695000,3,2,1234,5929,37.411467,-122.081323
760 Emily Dr,Mountain View,CA,94043,1399000,3,1,816,4700,37.404475,-122.066514
139 Hamilton Ave,Mountain View,CA,94043,1899900,3,2,1280,5001,37.405613,-122.101333
306 Nita Ave,Mountain View,CA,94043,1750000,3,2,1140,5789,37.410246,-122.104781
1917 Colony St,Mountain View,CA,94043,2650000,2,1,1064,11325.6,37.415257,-122.08736
395 Winwood Ave,Pacifica,CA,94044,1298000,3,2,1980,6181,37.653931,-122.486393
37 Alviso Ct,Pacifica,CA,94044,1200000,3,3,1750,8712,37.587573,-122.48922
417 Coral Ridge Dr,Pacifica,CA,94044,1188000,4,3.5,3058,3899,37.657291,-122.486835
155 Gordon Way,Pacifica,CA,94044,799000,3,2.5,2080,5062,37.655579,-122.488165
1083 Park Pacifica Ave,Pacifica,CA,94044,1099000,3,3,1492,6151,37.586549,-122.473827
468 Donaldson Ave,Pacifica,CA,94044,920000,2,2,1670,5998,37.608733,-122.494089
106 Calaveras Ave,Pacifica,CA,94044,1199000,4,3.5,1990,5624,37.611985,-122.473439
812 Burns Ct,Pacifica,CA,94044,948888,3,2,1280,5663,37.619309,-122.483431
348 Heathcliff Dr,Pacifica,CA,94044,1088000,3,3.5,2430,5001,37.651037,-122.475623
211 Modoc Pl,Pacifica,CA,94044,975000,2,2,1130,9226,37.610405,-122.473107
272 Gateway Dr,Pacifica,CA,94044,998000,4,2,1490,3899,37.662376,-122.47967
1275 Escalero Ave,Pacifica,CA,94044,1095000,4,3,2092,5306,37.592045,-122.495771
740 Serena Dr,Pacifica,CA,94044,995000,5,3,2050,8359,37.594985,-122.497122
423 Johnson Ave,Pacifica,CA,94044,899000,3,1,980,5523,37.649862,-122.488275
1116 Glacier Ave,Pacifica,CA,94044,1098000,3,3,1540,5998,37.591614,-122.461908
1267 Escalero Ave,Pacifica,CA,94044,897000,3,1,1040,5001,37.591995,-122.49561
373 Lynbrook Dr,Pacifica,CA,94044,1028000,4,2.5,1610,4003,37.657063,-122.476923
339 Inverness Dr,Pacifica,CA,94044,1250000,5,3,2910,3999,37.653277,-122.478718
1047 Valencia Way,Pacifica,CA,94044,1298000,4,2.5,1950,1950,37.594843,-122.488191
122 Berendos Ave,Pacifica,CA,94044,1545000,3,2,1830,7850,37.611872,-122.474705
1103 Glacier Ave,Pacifica,CA,94044,995000,3,2,1240,6299,37.591152,-122.462785
812 Standish Rd,Pacifica,CA,94044,995950,3,2,1160,5300,37.589166,-122.498128
1183 Crespi Dr,Pacifica,CA,94044,1197000,4,2,1530,9601,37.589667,-122.48624
22 Spruce Ct,Pacifica,CA,94044,1100000,4,2,1610,9300,37.59211,-122.481994
236 Catalina Ave,Pacifica,CA,94044,1050000,3,1,1060,4095,37.655884,-122.481654
1206 Oddstad Blvd,Pacifica,CA,94044,1443000,3,3,2300,6800,37.593302,-122.463142
353 Farallon Ave,Pacifica,CA,94044,1350000,3,2.5,1981,6534,37.655402,-122.484615
77 Montecito Ave,Pacifica,CA,94044,979000,1,1.5,1270,2252,37.632938,-122.492946
309 Bancroft Way,Pacifica,CA,94044,1100000,3,2,1500,5000,37.652385,-122.486375
227 Marvilla Cir,Pacifica,CA,94044,1599000,4,3.5,2365,5937,37.594185,-122.497721
607 Hickey Blvd,Pacifica,CA,94044,988000,4,3,1200,3999,37.654811,-122.479761
9351 Cabrillo Hwy,Pescadero,CA,94060,18999999,13,7.5,12000,,37.204739,-122.402111
531 Madrone Ave,Pescadero,CA,94060,688000,3,2,1050,27442.8,37.236,-122.323171
100 S Ranch Rd,Pescadero,CA,94060,1750000,2,2,1800,829818,37.236089,-122.334385
501 Bean Hollow Rd,Pescadero,CA,94060,3350000,3,2.5,2800,446925.6,37.227627,-122.406021
4931 Pescadero Creek Rd,Pescadero,CA,94060,2995000,3,2.5,2900,3360654,37.259367,-122.338987
301 Ranch Rd W,Pescadero,CA,94060,6395000,4,4.5,5100,8102160,37.240266,-122.352568
9351 Cabrillo Hwy,Pescadero,CA,94060,18999999,13,7.5,12000,,37.204739,-122.402111
531 Madrone Ave,Pescadero,CA,94060,688000,3,2,1050,27442.8,37.236,-122.323171
100 S Ranch Rd,Pescadero,CA,94060,1750000,2,2,1800,829818,37.236089,-122.334385
501 Bean Hollow Rd,Pescadero,CA,94060,3350000,3,2.5,2800,446925.6,37.227627,-122.406021
4931 Pescadero Creek Rd,Pescadero,CA,94060,2995000,3,2.5,2900,3360654,37.259367,-122.338987
301 Ranch Rd W,Pescadero,CA,94060,6395000,4,4.5,5100,8102160,37.240266,-122.352568
1128 Cleveland St,Redwood City,CA,94061,1350000,3,2,1755,5245,37.475481,-122.229103
212 Oak Ave,Redwood City,CA,94061,829000,3,1,1240,4373,37.476092,-122.225812
203 W Oakwood Blvd,Redwood City,CA,94061,1725000,3,3,2040,7902,37.463326,-122.239204
1226 Ebener St,Redwood City,CA,94061,1488000,3,3,1450,2178,37.472808,-122.228426
632-636 Myrtle St,Redwood City,CA,94061,1498000,2,2,1380,6251,37.474071,-122.238796
737 Ruby St,Redwood City,CA,94061,1998000,4,3,2000,5998,37.47014,-122.241549
211 Alexander Ave,Redwood City,CA,94061,1088000,2,1,720,2548,37.457481,-122.224174
2207 Roosevelt Ave,Redwood City,CA,94061,1449000,3,2,1240,10018.8,37.465084,-122.24135
3937 Lonesome Pine Rd,Redwood City,CA,94061,2833000,5,3,2636,22651.2,37.452379,-122.257111
1921 Kentfield Ave,Redwood City,CA,94061,1998000,4,2.5,2710,4251,37.461683,-122.22235
236 Center St,Redwood City,CA,94061,1390000,3,3.5,1630,5998,37.471853,-122.220114
902 Pleasant Hill Rd,Redwood City,CA,94061,1675000,3,2.5,2130,7701,37.459139,-122.253804
2709 Carolina Ave,Redwood City,CA,94061,1449000,3,1.5,1330,6050,37.453045,-122.233094
409 Center St,Redwood City,CA,94061,1500000,4,3.5,2110,5759,37.470456,-122.220524
18 Alverno Ct,Redwood City,CA,94061,1698000,2,2.5,2800,4909,37.453272,-122.262172
3098 Muller Ct,Redwood City,CA,94061,2698000,4,3.5,2380,10454.4,37.454778,-122.241723
8 Sequoia Ct,Redwood City,CA,94061,2250000,4,2.5,2700,8542,37.450607,-122.223541
1634 Virginia Ave,Redwood City,CA,94061,1499000,3,2,1640,6599,37.460319,-122.231877
455 Sequoia Ave,Redwood City,CA,94061,1675000,3,2,1330,10890,37.451299,-122.222622
454 Buena Vista Ave,Redwood City,CA,94061,3398000,5,5.5,3190,7501,37.453197,-122.221423
207 Yarborough Ln,Redwood City,CA,94061,2295000,4,3,2170,4456,37.463742,-122.219655
1321 Oak Ave,Redwood City,CA,94061,1388000,3,2.5,1490,2339,37.469228,-122.233773
1147 McKinley St,Redwood City,CA,94061,1585000,3,2,1373,5700,37.470709,-122.234506
1010 Eden Bower Ln,Redwood City,CA,94061,2298000,4,3,2410,5175,37.451114,-122.259574
2179 Alameda De Las Pulgas,Redwood City,CA,94061,1575000,3,1.5,1240,14374.8,37.44816,-122.230036
2503 Carson St,Redwood City,CA,94061,1349000,3,2,1434,7453,37.460641,-122.239537
439 Santa Clara Ave,Redwood City,CA,94061,1750000,3,2,1710,6800,37.450193,-122.224083
563 Santa Clara Ave,Redwood City,CA,94061,1798000,3,2,2010,10454.4,37.448839,-122.221939
1833 Vera Ave,Redwood City,CA,94061,1895000,4,3,2790,8799,37.468991,-122.241796
932 Pleasant Hill Rd,Redwood City,CA,94061,2498000,5,3,2480,7261,37.45842,-122.252902
132 Rutherford Ave,Redwood City,CA,94061,1699000,3,2,1660,5101,37.457423,-122.226487
2024 Idaho Ct,Redwood City,CA,94061,1988000,4,2.5,1880,10018.8,37.453954,-122.231816
69-71 Nueva Ave,Redwood City,CA,94061,1939000,7,4,3013,8250,37.46718,-122.222358
1401 Roosevelt Ave,Redwood City,CA,94061,2198000,5,5,2903,8398,37.470155,-122.2364
1753 W Selby Ln,Redwood City,CA,94061,3198000,4,4.5,2650,5428,37.450747,-122.224058
2502 McGarvey Ave,Redwood City,CA,94061,1998000,4,3.5,2257,6155,37.464704,-122.243908
234 Albion Ave,Woodside,CA,94062,28500000,8,8.5,10690,148104,37.430164,-122.263123
445 Manzanita Way,Woodside,CA,94062,27900000,5,4.5,9345,196020,37.41823,-122.245896
1025 Harrison Ave,Redwood City,CA,94062,1698000,3,3,2300,3123,37.47686,-122.23942
662 Oak Park Way,Redwood City,CA,94062,1998000,4,2.5,2112,8398,37.462513,-122.270375
714 Glenmere Way,Redwood City,CA,94062,2395000,4,3.5,3099,16988.4,37.45953,-122.271993
120 Hillside Dr,Woodside,CA,94062,2995000,3,3,2480,22215.6,37.438446,-122.253716
147 Summit Rd,Woodside,CA,94062,2495000,3,2.5,3350,130680,37.374024,-122.254244
212 Hillview Ave,Redwood City,CA,94062,1499000,2,1,1090,4961,37.476385,-122.249215
606 Park Rd,Redwood City,CA,94062,1998000,4,2.5,2660,6599,37.46647,-122.267096
35 Palomar Oaks Ln,Redwood City,CA,94062,3588000,4,4.5,4330,21344.4,37.477374,-122.262448
782 Glenmere Way,Redwood City,CA,94062,2350000,4,3.5,2930,6199,37.459972,-122.269034
20355 Skyline Blvd,Woodside,CA,94062,1998000,4,2.5,3120,69260.4,37.328202,-122.207798
3560 Altamont Way,Redwood City,CA,94062,1695000,4,2,2203,7571,37.466386,-122.250795
17900 Skyline Blvd,Woodside,CA,94062,5995000,6,7.5,9800,1038470.4,37.373447,-122.261573
103 Hillside Dr,Woodside,CA,94062,2500000,3,3,1700,9500,37.437828,-122.253951
14 Inner Cir,Redwood City,CA,94062,1950000,3,2,1464,7000,37.476734,-122.24595
1203 Edgewood Rd,Redwood City,CA,94062,2700000,5,3.5,3500,13939.2,37.48258,-122.255742
150 Elwood St,Redwood City,CA,94062,1698000,2,2,1839,4809,37.484672,-122.241157
643 W Glen Way,Woodside,CA,94062,3495000,4,3.5,4590,29185.2,37.453693,-122.275024
651 Handley Trl,Redwood City,CA,94062,1799000,3,2.5,2070,5885,37.46618,-122.26927
103 Alameda De Las Pulgas,Redwood City,CA,94062,1895000,3,2.5,1570,7680,37.48281,-122.255196
3707 Hamilton Way,Redwood City,CA,94062,1788000,3,2,1560,7597,37.464015,-122.257558
980 Espinosa Rd,Woodside,CA,94062,2798000,3,3,2650,110206.8,37.387554,-122.258852
2508 Eaton Ave,Redwood City,CA,94062,1699000,3,2,1590,4500,37.484285,-122.257669
1707 Edgewood Rd,Redwood City,CA,94062,2199995,4,2,2000,19602,37.474569,-122.263824
37 Nevada St,Redwood City,CA,94062,2450000,4,3,1660,9100,37.48126,-122.249984
110 Stadler Dr,Woodside,CA,94062,4198950,4,3.5,3972,43560,37.388558,-122.266593
1942 Kings Mountain Rd,Woodside,CA,94062,2995000,3,2.5,2040,157251.6,37.426712,-122.307103
387 Moore Rd,Woodside,CA,94062,12995000,4,5,7200,322779.6,37.432954,-122.234696
2132 Stockbridge Ave,Woodside,CA,94062,2995000,3,2,2100,10890,37.443207,-122.226703
10707 LA Honda Rd,Woodside,CA,94062,2198900,3,2.5,3660,110642.4,37.343995,-122.27302
4105 Woodside Rd,Woodside,CA,94062,13900000,4,3.5,4580,524898,37.412749,-122.25933
878 Hillcrest Dr,Redwood City,CA,94062,2098000,4,2.5,1910,17424,37.474304,-122.256669
460 Summit Springs Rd,Woodside,CA,94062,3995000,3,2.5,2500,58806,37.423836,-122.276931
754 Loma Ct,Redwood City,CA,94062,3488000,3,3,3720,15681.6,37.482037,-122.272326
60 Buck Ct,Woodside,CA,94062,5998000,4,3.5,4290,49658.4,37.443163,-122.233146
518 Patrol Rd,Woodside,CA,94062,3695000,4,2.5,2720,58370.4,37.425858,-122.278387
305 Jane Dr,Woodside,CA,94062,5595000,4,4.5,5930,126324,37.442963,-122.25596
1975 Portola Rd,Woodside,CA,94062,3999888,4,2.5,3050,87120,37.403193,-122.249262
214 Raymundo Dr,Woodside,CA,94062,4950000,5,5,3970,146361.6,37.447925,-122.279856
738 Sylvan Way,Redwood City,CA,94062,3995000,4,4.5,4630,18295.2,37.464119,-122.269065
205 Eleanor Dr,Woodside,CA,94062,6000000,5,4,4190,44866.8,37.439629,-122.236581
2041 Cordilleras Rd,Redwood City,CA,94062,3298000,4,3.5,3479,19602,37.47414,-122.273019
155 Hobart Heights Rd,Woodside,CA,94062,6088000,4,4,4127,142441.2,37.433187,-122.246791
234 Albion Ave,Woodside,CA,94062,28500000,8,8.5,10690,148104,37.430164,-122.263123
1025 Harrison Ave,Redwood City,CA,94062,1698000,3,3,2300,3123,37.47686,-122.23942
445 Manzanita Way,Woodside,CA,94062,27900000,5,4.5,9345,196020,37.41823,-122.245896
147 Summit Rd,Woodside,CA,94062,2495000,3,2.5,3350,130680,37.374024,-122.254244
714 Glenmere Way,Redwood City,CA,94062,2395000,4,3.5,3099,16988.4,37.45953,-122.271993
662 Oak Park Way,Redwood City,CA,94062,1998000,4,2.5,2112,8398,37.462513,-122.270375
120 Hillside Dr,Woodside,CA,94062,2995000,3,3,2480,22215.6,37.438446,-122.253716
606 Park Rd,Redwood City,CA,94062,1998000,4,2.5,2660,6599,37.46647,-122.267096
782 Glenmere Way,Redwood City,CA,94062,2350000,4,3.5,2930,6199,37.459972,-122.269034
35 Palomar Oaks Ln,Redwood City,CA,94062,3588000,4,4.5,4330,21344.4,37.477374,-122.262448
20355 Skyline Blvd,Woodside,CA,94062,1998000,4,2.5,3120,69260.4,37.328202,-122.207798
103 Hillside Dr,Woodside,CA,94062,2500000,3,3,1700,9500,37.437828,-122.253951
3560 Altamont Way,Redwood City,CA,94062,1695000,4,2,2203,7571,37.466386,-122.250795
17900 Skyline Blvd,Woodside,CA,94062,5995000,6,7.5,9800,1038470.4,37.373447,-122.261573
83 El Vanada Rd,Redwood City,CA,94062,1388000,3,2,1580,10890,37.475942,-122.276177
1203 Edgewood Rd,Redwood City,CA,94062,2700000,5,3.5,3500,13939.2,37.48258,-122.255742
3707 Hamilton Way,Redwood City,CA,94062,1788000,3,2,1560,7597,37.464015,-122.257558
2508 Eaton Ave,Redwood City,CA,94062,1699000,3,2,1590,4500,37.484285,-122.257669
37 Nevada St,Redwood City,CA,94062,2450000,4,3,1660,9100,37.48126,-122.249984
527 Sunset Way,Redwood City,CA,94062,2600000,4,2,2700,17424,37.460817,-122.272349
651 Handley Trl,Redwood City,CA,94062,1799000,3,2.5,2070,5885,37.46618,-122.26927
150 Elwood St,Redwood City,CA,94062,1698000,2,2,1839,4809,37.484672,-122.241157
103 Alameda De Las Pulgas,Redwood City,CA,94062,1895000,3,2.5,1570,7680,37.48281,-122.255196
980 Espinosa Rd,Woodside,CA,94062,2798000,3,3,2650,110206.8,37.387554,-122.258852
1707 Edgewood Rd,Redwood City,CA,94062,2199995,4,2,2000,19602,37.474569,-122.263824
643 W Glen Way,Woodside,CA,94062,3495000,4,3.5,4590,29185.2,37.453693,-122.275024
387 Moore Rd,Woodside,CA,94062,12995000,4,5,7200,322779.6,37.432954,-122.234696
2132 Stockbridge Ave,Woodside,CA,94062,2995000,3,2,2100,10890,37.443207,-122.226703
214 Raymundo Dr,Woodside,CA,94062,4950000,5,5,3970,146361.6,37.447925,-122.279856
110 Stadler Dr,Woodside,CA,94062,4198950,4,3.5,3972,43560,37.388558,-122.266593
10707 LA Honda Rd,Woodside,CA,94062,2198900,3,2.5,3660,110642.4,37.343995,-122.27302
1942 Kings Mountain Rd,Woodside,CA,94062,2995000,3,2.5,2040,157251.6,37.426712,-122.307103
878 Hillcrest Dr,Redwood City,CA,94062,2098000,4,2.5,1910,17424,37.474304,-122.256669
4105 Woodside Rd,Woodside,CA,94062,13900000,4,3.5,4580,524898,37.412749,-122.25933
754 Loma Ct,Redwood City,CA,94062,3488000,3,3,3720,15681.6,37.482037,-122.272326
460 Summit Springs Rd,Woodside,CA,94062,3995000,3,2.5,2500,58806,37.423836,-122.276931
60 Buck Ct,Woodside,CA,94062,5998000,4,3.5,4290,49658.4,37.443163,-122.233146
1975 Portola Rd,Woodside,CA,94062,3999888,4,2.5,3050,87120,37.403193,-122.249262
305 Jane Dr,Woodside,CA,94062,5595000,4,4.5,5930,126324,37.442963,-122.25596
518 Patrol Rd,Woodside,CA,94062,3695000,4,2.5,2720,58370.4,37.425858,-122.278387
738 Sylvan Way,Redwood City,CA,94062,3995000,4,4.5,4630,18295.2,37.464119,-122.269065
2041 Cordilleras Rd,Redwood City,CA,94062,3298000,4,3.5,3479,19602,37.47414,-122.273019
155 Hobart Heights Rd,Woodside,CA,94062,6088000,4,4,4127,142441.2,37.433187,-122.246791
205 Eleanor Dr,Woodside,CA,94062,6000000,5,4,4190,44866.8,37.439629,-122.236581
213 Dumbarton Ave,Redwood City,CA,94063,830000,3,1,900,2901,37.473561,-122.211121
287 G St,Redwood City,CA,94063,1198950,3,1,1280,5850,37.496611,-122.242794
609 Stanford Ave,Redwood City,CA,94063,1438000,4,2.5,1960,5001,37.47949,-122.208927
3 Friendly Ct,Redwood City,CA,94063,1398000,4,2,1792,7000,37.483785,-122.188991
3187 Bay Rd,Redwood City,CA,94063,1149000,2,1,940,6098,37.481912,-122.198672
3719 Hoover St,Redwood City,CA,94063,1150000,3,1,1250,6534,37.483935,-122.185544
928 Stambaugh St,Redwood City,CA,94063,1050000,3,1,1060,4800,37.481922,-122.219019
38 Broadway St,Redwood City,CA,94063,1198000,3,1,970,5998,37.484782,-122.197569
787 Seventh Ave,Redwood City,CA,94063,1095000,2,1,970,5759,37.478833,-122.198364
246 Biarritz Ct,Redwood City,CA,94065,2248422,3,2.5,2019,6717,37.541481,-122.24434
648 Spar Dr,Redwood City,CA,94065,1625000,3,2,1600,7370,37.52289,-122.248812
459 Starboard Dr,Redwood City,CA,94065,1748000,3,2.5,1980,3990,37.530056,-122.254052
257 Monaco Dr,Redwood City,CA,94065,2499942,4,3,2545,6464,37.541702,-122.242827
563 Compass Cir,Redwood City,CA,94065,2748472,5,3,2880,6499,37.527758,-122.250835
641 Spar Dr,Redwood City,CA,94065,2298000,6,5,2748,7000,37.523314,-122.248613
1572 Jenevein Ave,San Bruno,CA,94066,1299000,4,3,2440,5001,37.619865,-122.420093
3303 Aegean Way,San Bruno,CA,94066,1395000,5,3.5,2587,5184,37.632592,-122.460801
3520 Longview Dr,San Bruno,CA,94066,1250000,5,3,2240,12196.8,37.629608,-122.459939
100 Stanislaus Ct,San Bruno,CA,94066,1298000,3,2.5,2040,5998,37.624483,-122.455017
230 Emaron Dr,San Bruno,CA,94066,1149000,3,3,1560,5140,37.631102,-122.456725
229 Cypress Ave,San Bruno,CA,94066,1250000,4,2,1840,4792,37.61647,-122.412955
2861 Fleetwood Dr,San Bruno,CA,94066,928000,3,2,1110,6098,37.627252,-122.448634
430 Hawthorne Ave,San Bruno,CA,94066,1188000,3,2,1360,5022,37.616637,-122.42172
381 Huntington Ave,San Bruno,CA,94066,1450000,5,3,2860,3202,37.622073,-122.407457
1811 Kains Ave,San Bruno,CA,94066,1375000,4,2,1710,5863,37.621951,-122.425373
3220 Longview Dr,San Bruno,CA,94066,1500000,4,3,2550,13939.2,37.628295,-122.455806
400 N San Anselmo Ave,San Bruno,CA,94066,749998,2,1,990,4356,37.622229,-122.409006
523 Acacia Ave,San Bruno,CA,94066,925000,2,1,920,3700,37.622274,-122.416462
2330 Rosewood Dr,San Bruno,CA,94066,1348000,4,2,1340,6957,37.615309,-122.431572
3491 Fleetwood Dr,San Bruno,CA,94066,1088000,4,3,2190,12196.8,37.635928,-122.458703
701 Green Ave,San Bruno,CA,94066,1295000,3,2.5,1980,4792,37.627529,-122.414277
676 7th Ave,San Bruno,CA,94066,788000,3,2,1360,3049,37.629398,-122.404997
565 Chestnut Ave,San Bruno,CA,94066,998000,3,1,1360,5998,37.621623,-122.420951
2571 Heather Ln,San Bruno,CA,94066,899000,3,2,1110,6500,37.628404,-122.443839
718 Pepper Dr,San Bruno,CA,94066,1190000,3,2,1410,4792,37.62255,-122.425813
3035 Fleetwood Dr,San Bruno,CA,94066,1388000,5,3,1110,7980,37.631476,-122.45251
2301 Toyon Way,San Bruno,CA,94066,988000,3,2,1110,8276,37.630143,-122.439271
925 Lupin Way,San Carlos,CA,94070,1600000,4,2,1749,5502,37.494408,-122.265083
1408 Cordilleras Ave,San Carlos,CA,94070,2248000,4,2,2250,6599,37.49103,-122.257523
2253 Howard Ave,San Carlos,CA,94070,1499000,3,2,1628,6120,37.491651,-122.260998
970 Holly St,San Carlos,CA,94070,1199000,2,1,890,5850,37.51094,-122.259604
136 Northam Ave,San Carlos,CA,94070,3188813,4,3.5,3700,6887,37.50873,-122.27566
30 Hilltop Dr,San Carlos,CA,94070,1750000,3,2,1762,5249,37.488294,-122.260512
1411 Crestview Dr,San Carlos,CA,94070,1950000,3,2,2450,10018.8,37.476999,-122.281012
321 Clifton Ave,San Carlos,CA,94070,2695000,5,3.5,3510,8002,37.50483,-122.279361
447 Hillcrest Rd,San Carlos,CA,94070,1998000,3,2,2610,5798,37.502915,-122.269149
300 Chestnut St,San Carlos,CA,94070,2395000,3,3,2415,13068,37.507586,-122.26705
2724 Eaton Ave,San Carlos,CA,94070,3599000,5,4.5,3510,5702,37.48482,-122.26394
125 Northam Ave,San Carlos,CA,94070,3050000,5,4.5,4260,5602,37.508169,-122.27576
1101 Cordilleras Ave,San Carlos,CA,94070,2159000,3,2.5,1820,4400,37.494449,-122.260521
10 Shratton Ave,San Carlos,CA,94070,2295000,3,3,2610,7701,37.500343,-122.286
112 Belvedere Ave,San Carlos,CA,94070,1590000,3,2,1260,4600,37.494879,-122.25146
887 Elm St,San Carlos,CA,94070,2880000,4,4.5,2540,5005,37.502031,-122.258334
120 Arundel Rd,San Carlos,CA,94070,1725000,2,2,1420,8425,37.504111,-122.27128
1071 Lupin Way Unit Lowr,San Carlos,CA,94070,1498000,3,1,1220,7449,37.492288,-122.265189
227 Edgehill Dr,San Carlos,CA,94070,1699000,3,2,1310,8102,37.489897,-122.260288
1159 Alameda,San Carlos,CA,94070,1650000,3,2,1790,5920,37.490729,-122.264536
2912 Franciscan Ct,San Carlos,CA,94070,1710000,3,2.5,1750,5998,37.485536,-122.267798
147 Oakley Ave,San Carlos,CA,94070,3650000,5,4.5,4839,21780,37.497547,-122.286668
1520 School St,San Carlos,CA,94070,1795000,3,2.5,1680,6599,37.501997,-122.259622
933 Woodland Ave,San Carlos,CA,94070,2480000,4,3,2450,5401,37.499396,-122.258621
136 Chesham Ave,San Carlos,CA,94070,1799000,4,2,1850,7000,37.495929,-122.281025
2713 Clifford Ave,San Carlos,CA,94070,2790000,3,3,2820,13068,37.483844,-122.26208
247 Fairmont Ave,San Carlos,CA,94070,1749000,3,2,1440,4400,37.4889,-122.255691
2501 Melendy Dr,San Carlos,CA,94070,1895000,4,2,1850,6935,37.493224,-122.271619
5 Porto Marino Ln,San Carlos,CA,94070,3248000,4,3,3440,57499.2,37.491054,-122.276077
1094 Hewitt Dr,San Carlos,CA,94070,2350000,4,3,2112,9000,37.488174,-122.27153
30 Gateway Ct,San Carlos,CA,94070,2400000,4,3.5,2861,4792,37.506642,-122.285661
2460 Howard Ave,San Carlos,CA,94070,3150000,4,3,3213,10454.4,37.489175,-122.264391
145 Bear Gulch Rd,San Gregorio,CA,94074,4995000,1,1,800,13645605.6,37.332917,-122.354811
234 8th Ln,South San Francisco,CA,94080,788000,2,1,860,3498,37.659532,-122.407805
230 Hazelwood Dr,South San Francisco,CA,94080,899000,2,1,990,4500,37.640147,-122.430994
108 Arroyo Dr,South San Francisco,CA,94080,1100000,3,2,1150,10454.4,37.654859,-122.438712
35 Capay Cir,South San Francisco,CA,94080,1125000,3,2,1380,9322,37.649527,-122.442944
757 Baden Ave,South San Francisco,CA,94080,899000,2,1,1110,4792,37.657317,-122.425893
115 Buxton Ave,South San Francisco,CA,94080,925000,3,1,1050,4500,37.662514,-122.459821
114 Manzanita Ave,South San Francisco,CA,94080,948000,3,1,1080,4591,37.650515,-122.421304
10 Arlington Dr,South San Francisco,CA,94080,850000,3,2,1590,4356,37.670138,-122.454109
2504 Ardee Ln,South San Francisco,CA,94080,799000,3,2,2240,5000,37.642392,-122.459854
124 Mountain Rd,South San Francisco,CA,94080,1198888,3,2.5,1580,3302,37.664275,-122.422106
433 Dianne Ct,South San Francisco,CA,94080,1288888,4,2.5,2050,7000,37.638541,-122.436593
28 Mandalay Pl,South San Francisco,CA,94080,1650000,4,2.5,2500,2958,37.666702,-122.401872
547 Miller Ave,South San Francisco,CA,94080,1175000,3,1.5,1560,5663,37.657656,-122.417888
3907 Crofton Way,South San Francisco,CA,94080,1200000,3,2,1690,2614,37.6491,-122.462275
807 LA Montagne Pl,South San Francisco,CA,94080,1378000,3,2.5,2250,2265,37.666877,-122.425046
2370 Bourbon Ct,South San Francisco,CA,94080,1350000,4,2.5,1750,7261,37.640849,-122.456409
898 Camaritas Cir,South San Francisco,CA,94080,1050000,3,2,1020,5227,37.664262,-122.450611
1189 Morningside Ave,South San Francisco,CA,94080,899000,2,1,870,4874,37.669047,-122.433009
151 Escanyo Dr,South San Francisco,CA,94080,1200000,4,2,1600,7200,37.649797,-122.448869
509 Magnolia Ave,South San Francisco,CA,94080,998000,2,2,1260,3999,37.659575,-122.419331
220 Village Way,South San Francisco,CA,94080,875000,3,1,1000,2178,37.652969,-122.409887
37 Parkgrove Dr,South San Francisco,CA,94080,1595000,4,2.5,2410,5663,37.671007,-122.416277
816 Byron Dr,South San Francisco,CA,94080,925000,3,2,1310,5227,37.66168,-122.453611
23 Viewmont Ter,South San Francisco,CA,94080,1219000,3,3,1930,4356,37.663293,-122.423978
296 Evergreen Dr,South San Francisco,CA,94080,1199000,3,3,2360,4356,37.666547,-122.439585
396 Willow Ave,South San Francisco,CA,94080,950000,3,1,1080,4591,37.664741,-122.432738
477 Alta Vista Dr,South San Francisco,CA,94080,1199000,3,2,1650,5001,37.637968,-122.438562
3973 Chatham Ct,South San Francisco,CA,94080,1098000,4,2,1820,2450,37.649947,-122.465371
68 Arlington Dr,South San Francisco,CA,94080,799000,3,1,990,4500,37.66758,-122.458174
3140 Dublin Ct,South San Francisco,CA,94080,1289000,3,3,1820,7405,37.642655,-122.456755
150 Pecks Ln,South San Francisco,CA,94080,1198000,4,2,1370,4356,37.664207,-122.404529
208 Northwood Dr,South San Francisco,CA,94080,899000,2,1,990,4500,37.641581,-122.429504
615 Cypress Ave,Sunnyvale,CA,94085,1495000,3,1.5,1352,5332,37.38819,-122.014806
322 Jackson St,Sunnyvale,CA,94085,1799000,3,2.5,2123,6904,37.383972,-122.024186
949 E Duane Ave,Sunnyvale,CA,94085,1199888,3,2,1050,5471,37.388718,-122.002172
572 E Duane Ave,Sunnyvale,CA,94085,1290000,3,2,1009,5680,37.388835,-122.016409
808 San Rafael St,Sunnyvale,CA,94085,1195000,3,2,1326,5990,37.391846,-122.002726
677 Cypress Ave,Sunnyvale,CA,94085,1498000,5,3,2101,5314,37.3879,-122.013421
755 Borregas Ave,Sunnyvale,CA,94085,1139000,3,1,1027,5001,37.395361,-122.023711
565 Manzanita Ave,Sunnyvale,CA,94085,1199888,2,1,884,5044,37.389579,-122.026503
304 Roosevelt Ave,Sunnyvale,CA,94085,1775000,4,2.5,1924,7000,37.382493,-122.021287
731 Manzanita Ave,Sunnyvale,CA,94085,1435000,4,3,1825,4491,37.394996,-122.024729
582 Maple Ave,Sunnyvale,CA,94085,1218000,3,1,1044,5358,37.388637,-122.019176
386 E Duane Ave,Sunnyvale,CA,94085,1660000,3,2,1493,5271,37.389755,-122.021741
Echo - Plan 2,Sunnyvale,CA,94085,1424000,3,2,1851,,37.387268,-122.004052
Echo - Plan 1,Sunnyvale,CA,94085,1434000,3,3.5,1851,,37.387268,-122.004052
Echo - Plan 3,Sunnyvale,CA,94085,1498000,4,3.5,1875,,37.387268,-122.004052
Plan One,Sunnyvale,CA,94085,1448000,3,3.5,2007,,37.387268,-122.004052
Plan Three,Sunnyvale,CA,94085,1498000,4,3.5,2014,,37.387268,-122.004052
Plan Two,Sunnyvale,CA,94085,1488000,4,3.5,2002,,37.387268,-122.004052
Plan Four,Sunnyvale,CA,94085,1548000,4,3.5,1960,,37.387268,-122.004052
871 Lori Ave,Sunnyvale,CA,94086,1395000,3,2,1141,5001,37.384607,-122.038958
223 Roosevelt Ave,Sunnyvale,CA,94086,1495000,3,2.5,1750,4199,37.381071,-122.022436
883 Henderson Ave,Sunnyvale,CA,94086,1549000,4,2,1688,6521,37.359405,-122.005311
1178 Myrtle Dr,Sunnyvale,CA,94086,1299000,3,2,1580,5445,37.360803,-121.99741
219 W Olive Ave,Sunnyvale,CA,94086,1899000,4,2.5,1612,4160,37.371371,-122.033812
318 Bartlett Ave,Sunnyvale,CA,94086,1295000,3,1,956,5140,37.378176,-122.016254
664 W Mc Kinley Ave,Sunnyvale,CA,94086,1824988,3,1,1352,7261,37.375511,-122.037808
867 Acacia Ave,Sunnyvale,CA,94086,1499000,3,3,1776,5001,37.378739,-122.017244
837 Gladiola Dr,Sunnyvale,CA,94086,1650000,4,2,1713,6743,37.364055,-122.016705
1059 Carson Dr,Sunnyvale,CA,94086,1839000,3,2,2180,6813,37.381837,-122.047797
187 Matadero Dr,Sunnyvale,CA,94086,1598000,3,2,1413,6007,37.37974,-122.045147
908 Bluebonnet Dr,Sunnyvale,CA,94086,1750000,4,2,1659,6488,37.367234,-122.012759
687 Toyon Ave,Sunnyvale,CA,94086,1648000,4,2,1507,5567,37.364381,-121.99817
356 E Washington Ave,Sunnyvale,CA,94086,1499888,3,2,1350,4199,37.375153,-122.02748
430 Juniper Ct,Sunnyvale,CA,94086,1980000,4,2,1827,6395,37.36933,-122.015018
536 Hawthorn Ave,Sunnyvale,CA,94086,2050000,3,2,1360,13503.6,37.368035,-122.019615
309 Polaris Ter,Sunnyvale,CA,94086,1898000,3,2.5,1869,2526,37.373028,-122.033988
215 Roosevelt Ave,Sunnyvale,CA,94086,1748000,3,2.5,1750,4901,37.380905,-122.022492
1532 Dominion Ave,Sunnyvale,CA,94087,1950000,3,2,1426,16117.2,37.343636,-122.056363
728 Dona Ave,Sunnyvale,CA,94087,1425000,3,1,1024,6299,37.37041,-122.052721
1560 Heron Ave,Sunnyvale,CA,94087,1745000,3,2,1684,6199,37.343265,-122.018593
1045 Robin Way,Sunnyvale,CA,94087,1660000,3,2,1567,16117.2,37.362018,-122.061452
1453 Firebird Way,Sunnyvale,CA,94087,1685000,4,2.5,1671,6804,37.346776,-122.022995
1027 Kenbridge Ct,Sunnyvale,CA,94087,1799000,4,2,1371,7431,37.363627,-122.051801
1643 Swallow Dr,Sunnyvale,CA,94087,1788000,4,2,1421,6303,37.339491,-122.002877
933 Leighton Way,Sunnyvale,CA,94087,1800000,5,3,2274,6434,37.339496,-122.010189
1393 Hampton Dr,Sunnyvale,CA,94087,1988888,3,1,1290,7558,37.348576,-122.01346
1784 Lark Ln,Sunnyvale,CA,94087,1799888,4,2,1828,6643,37.333812,-122.017124
1621 Waxwing Ave,Sunnyvale,CA,94087,1799950,3,2,1720,6146,37.339146,-121.998126
1236 Van Dyck Dr,Sunnyvale,CA,94087,1899950,4,2.5,1912,6351,37.353857,-122.018879
997 Chelan Dr,Sunnyvale,CA,94087,2148800,3,2,1733,9666,37.346536,-122.054676
1580 Belleville Way,Sunnyvale,CA,94087,2269000,4,3,2227,12632.4,37.342118,-122.060321
1690 Kennewick Dr,Sunnyvale,CA,94087,1999800,4,2,1908,8120,37.338243,-122.045811
1092 Inverness Way,Sunnyvale,CA,94087,1888000,3,2,1872,6970,37.341657,-122.003483
1389 Belleville Way,Sunnyvale,CA,94087,2580000,4,2.5,2274,9866,37.347867,-122.062578
1564 Quail Ave,Sunnyvale,CA,94087,1895000,3,2,1524,6373,37.342949,-122.005095
149 Berwick Way,Sunnyvale,CA,94087,2098000,4,2,1770,7153,37.350745,-122.030606
772 Limerick Ct,Sunnyvale,CA,94087,1749000,3,2,1402,5911,37.338986,-122.019462
951 E Homestead Rd,Sunnyvale,CA,94087,1598000,3,2,1290,6573,37.338017,-122.009076
1166 Pome Ave,Sunnyvale,CA,94087,1999800,4,2,1437,10454.4,37.355962,-122.045223
501 Kinross Ct,Sunnyvale,CA,94087,1999999,5,3.5,2650,5500,37.34,-122.0294
136 Avon Ter,Sunnyvale,CA,94087,1790000,3,2.5,1639,3393,37.367008,-122.100113
856 Radcliff Way,Sunnyvale,CA,94087,2175000,3,2.5,1892,6804,37.360014,-122.048415
1502 Kingsgate Dr,Sunnyvale,CA,94087,2480000,4,2,1872,8716,37.344624,-122.047716
735 Lakewood Dr,Sunnyvale,CA,94089,1375000,3,2,1420,5467,37.394635,-122.004633
921 Lakebird Dr,Sunnyvale,CA,94089,1140000,3,2,1258,5942,37.399508,-121.998844
380 Greenlake Dr,Sunnyvale,CA,94089,1298000,3,2,1108,6826,37.39945,-122.007707
1365 Socorro Ave,Sunnyvale,CA,94089,1380000,4,2,1580,5841,37.390643,-121.988116
304 Persian Dr,Sunnyvale,CA,94089,2250000,3,1,1000,13068,37.404512,-122.017535
230 Velvetlake Dr,Sunnyvale,CA,94089,1399000,4,3,1468,8425,37.392911,-121.996372
835 S Lakewood Dr,Sunnyvale,CA,94089,1450000,3,2,1108,5512,37.393539,-122.000789
1157 Prescott Ave,Sunnyvale,CA,94089,999000,3,2,1108,6050,37.39784,-121.992814
1121 Fairwood Ave,Sunnyvale,CA,94089,1249000,3,2,1108,7636,37.396506,-121.991545
1101 Palamos Ave,Sunnyvale,CA,94089,1199000,3,2,1108,5654,37.399562,-121.995442
746 Lakemuir Dr,Sunnyvale,CA,94089,1298800,3,2,1416,5889,37.394752,-122.003991
1273 Socorro Ave,Sunnyvale,CA,94089,1340000,3,2,1486,5401,37.393838,-121.989203
1241 Pecos Way,Sunnyvale,CA,94089,1189000,3,2,1108,6375,37.399142,-121.989601
735 Lakewood Dr,Sunnyvale,CA,94089,1375000,3,2,1420,5467,37.394635,-122.004633
921 Lakebird Dr,Sunnyvale,CA,94089,1140000,3,2,1258,5942,37.399508,-121.998844
1241 Pecos Way,Sunnyvale,CA,94089,1189000,3,2,1108,6375,37.399142,-121.989601
746 Lakemuir Dr,Sunnyvale,CA,94089,1298800,3,2,1416,5889,37.394752,-122.003991
1157 Prescott Ave,Sunnyvale,CA,94089,999000,3,2,1108,6050,37.39784,-121.992814
230 Velvetlake Dr,Sunnyvale,CA,94089,1399000,4,3,1468,8425,37.392911,-121.996372
380 Greenlake Dr,Sunnyvale,CA,94089,1298000,3,2,1108,6826,37.39945,-122.007707
835 S Lakewood Dr,Sunnyvale,CA,94089,1450000,3,2,1108,5512,37.393539,-122.000789
1121 Fairwood Ave,Sunnyvale,CA,94089,1249000,3,2,1108,7636,37.396506,-121.991545
1365 Socorro Ave,Sunnyvale,CA,94089,1380000,4,2,1580,5841,37.390643,-121.988116
1101 Palamos Ave,Sunnyvale,CA,94089,1199000,3,2,1108,5654,37.399562,-121.995442
304 Persian Dr,Sunnyvale,CA,94089,2250000,3,1,1000,13068,37.404512,-122.017535
1273 Socorro Ave,Sunnyvale,CA,94089,1340000,3,2,1486,5401,37.393838,-121.989203
334 Harriet St,San Francisco,CA,94103,1195000,2,2,,,37.775061,-122.402644
1331 Folsom St,San Francisco,CA,94103,4000000,2,4,,2178,37.773292,-122.41178
456 Clementina St,San Francisco,CA,94103,4250000,2,2.5,4950,3920,37.77977,-122.405274
1126 Rhode Island St,San Francisco,CA,94107,1799000,3,2,1632,2614,37.755566,-122.401999
779 Wisconsin St,San Francisco,CA,94107,3698000,4,3.5,,2614,37.757647,-122.39866
228 Clara St,San Francisco,CA,94107,1509000,1,1,800,2178,37.778973,-122.403272
1387 DE Haro St,San Francisco,CA,94107,995000,1,1,794,1742,37.752338,-122.400094
547 Missouri St,San Francisco,CA,94107,4995000,5,5.5,,2614,37.759372,-122.395909
224 Mississippi St,San Francisco,CA,94107,2700000,2,2,3400,2614,37.763555,-122.394988
712 DE Haro St,San Francisco,CA,94107,3598000,4,3.5,2826,2614,37.760734,-122.40152
1126 Rhode Island St,San Francisco,CA,94107,1799000,3,2,1632,2614,37.755566,-122.401999
779 Wisconsin St,San Francisco,CA,94107,3698000,4,3.5,,2614,37.757647,-122.39866
228 Clara St,San Francisco,CA,94107,1509000,1,1,800,2178,37.778973,-122.403272
1387 DE Haro St,San Francisco,CA,94107,995000,1,1,794,1742,37.752338,-122.400094
547 Missouri St,San Francisco,CA,94107,4995000,5,5.5,,2614,37.759372,-122.395909
224 Mississippi St,San Francisco,CA,94107,2700000,2,2,3400,2614,37.763555,-122.394988
712 DE Haro St,San Francisco,CA,94107,3598000,4,3.5,2826,2614,37.760734,-122.40152
920 Powell St,San Francisco,CA,94108,3199000,4,4,,,37.793289,-122.409209
1110 Green St,San Francisco,CA,94109,14400000,4,6,,,37.798642,-122.417693
2323 Hyde St,San Francisco,CA,94109,13800000,6,6.5,8846,6534,37.802259,-122.419873
1350 Jones St,San Francisco,CA,94109,16500000,4,4,,2178,37.793862,-122.414359
5 N View Ct,San Francisco,CA,94109,3350000,4,2,2963,3485,37.804034,-122.42263
1 McCormick St,San Francisco,CA,94109,3795000,4,4,3033,1742,37.794921,-122.419171
606 Ellis St,San Francisco,CA,94109,1888000,3,2,1635,2178,37.784616,-122.416483
5 Torrens Ct,San Francisco,CA,94109,1599000,3,1,1291,2178,37.793011,-122.418768
898 Francisco St,San Francisco,CA,94109,10950000,6,6.5,6305,5663,37.80412,-122.419814
2531 Larkin St,San Francisco,CA,94109,2395000,4,2,2575,2614,37.80126,-122.421459
151 Bernard St,San Francisco,CA,94109,1999000,3,3.5,,1307,37.796094,-122.415924
1110 Green St,San Francisco,CA,94109,14400000,4,6,,,37.798642,-122.417693
2323 Hyde St,San Francisco,CA,94109,13800000,6,6.5,8846,6534,37.802259,-122.419873
1350 Jones St,San Francisco,CA,94109,16500000,4,4,,2178,37.793862,-122.414359
5 N View Ct,San Francisco,CA,94109,3350000,4,2,2963,3485,37.804034,-122.42263
1 McCormick St,San Francisco,CA,94109,3795000,4,4,3033,1742,37.794921,-122.419171
606 Ellis St,San Francisco,CA,94109,1888000,3,2,1635,2178,37.784616,-122.416483
5 Torrens Ct,San Francisco,CA,94109,1599000,3,1,1291,2178,37.793011,-122.418768
898 Francisco St,San Francisco,CA,94109,10950000,6,6.5,6305,5663,37.80412,-122.419814
2531 Larkin St,San Francisco,CA,94109,2395000,4,2,2575,2614,37.80126,-122.421459
151 Bernard St,San Francisco,CA,94109,1999000,3,3.5,,1307,37.796094,-122.415924
24 Costa St,San Francisco,CA,94110,849000,1,1,1025,1956,37.744887,-122.406566
738 Banks St,San Francisco,CA,94110,999000,3,2,1509,1742,37.733979,-122.413328
1609 Dolores St,San Francisco,CA,94110,2495000,4,2,2094,1742,37.743595,-122.424025
521 Ellsworth St,San Francisco,CA,94110,995000,2,1,1000,1742,37.73681,-122.414563
144 Andover St,San Francisco,CA,94110,1339250,2,1.5,1744,1742,37.741081,-122.416542
7 Wool St,San Francisco,CA,94110,695000,1,1,800,1742,37.741435,-122.416756
82 Putnam St,San Francisco,CA,94110,800000,3,1,1240,1742,37.738493,-122.411043
2770 23rd St,San Francisco,CA,94110,1175000,3,1.5,1454,1285,37.754582,-122.407871
3145 Cesar Chavez,San Francisco,CA,94110,1195000,2,1,1315,5227,37.747895,-122.412509
364 Crescent Ave,San Francisco,CA,94110,2495000,4,3,2725,2614,37.734747,-122.417625
626 Banks St,San Francisco,CA,94110,898000,2,1,825,1742,37.735494,-122.413188
173 Anderson St,San Francisco,CA,94110,1150000,4,1.5,1494,1742,37.740661,-122.414956
226 Richland Ave,San Francisco,CA,94110,1500000,2,1,1430,2614,37.735661,-122.422226
373 Moultrie St,San Francisco,CA,94110,1295000,2,1.5,,1742,37.739351,-122.415681
276 Ripley St,San Francisco,CA,94110,4200000,4,3.5,,6098,37.74407,-122.409135
1225 San Bruno Ave,San Francisco,CA,94110,1199000,2,1,930,1742,37.753603,-122.40414
324 Rutledge St,San Francisco,CA,94110,1898000,4,3.5,1733,2614,37.745131,-122.40981
151 Liberty St,San Francisco,CA,94110,8600000,6,4.5,5085,3049,37.757384,-122.424479
156 Bonview St,San Francisco,CA,94110,999000,2,1,750,1742,37.741806,-122.417854
540 Shotwell St,San Francisco,CA,94110,1599000,4,3,1801,3485,37.759773,-122.416186
122 Brewster St,San Francisco,CA,94110,1695000,4,3,2333,1742,37.744752,-122.407142
400 Franconia St,San Francisco,CA,94110,1800000,5,4.5,4845,6534,37.74349,-122.407925
45 Montcalm St,San Francisco,CA,94110,1425000,2,2,1275,1873,37.747144,-122.405778
1328 York St,San Francisco,CA,94110,1650000,3,1,1200,2596,37.750733,-122.408266
48 Fair Ave,San Francisco,CA,94110,1495000,3,2,1582,1742,37.74513,-122.419193
2975 Harrison St,San Francisco,CA,94110,1549000,2,1,1200,2614,37.74992,-122.411323
3336 23rd St,San Francisco,CA,94110,3195000,3,3.5,2668,2178,37.753986,-122.419406
32-A Elsie St,San Francisco,CA,94110,2395000,4,2.5,2231,1742,37.744371,-122.416888
39 Virginia Ave,San Francisco,CA,94110,1439000,2,1,1434,1742,37.743022,-122.420738
33 Stoneman St,San Francisco,CA,94110,1899000,3,3,2170,1742,37.744882,-122.414489
154 Bonview St,San Francisco,CA,94110,2725000,3,2.5,1875,2614,37.741867,-122.417815
114 Virginia Ave,San Francisco,CA,94110,2750000,5,4,2570,1742,37.742308,-122.419974
100 Gates St,San Francisco,CA,94110,2400000,3,4,2120,1742,37.741443,-122.414021
76 Cortland Ave,San Francisco,CA,94110,1849000,3,2.5,1392,1250,37.740256,-122.421363
489 Madrid St,San Francisco,CA,94112,740500,2,1,1900,2496,37.721717,-122.432388
14 Edna St,San Francisco,CA,94112,925000,1,1,1145,2614,37.726924,-122.446276
211 Miramar Ave,San Francisco,CA,94112,950000,2,2,1750,3049,37.722231,-122.458498
363 Howth St,San Francisco,CA,94112,899000,3,1,1635,3049,37.718802,-122.451898
27 Stoneybrook Ave,San Francisco,CA,94112,899000,3,1,1016,2178,37.730615,-122.421503
210 Faxon Ave,San Francisco,CA,94112,758000,2,1,852,1873,37.718466,-122.45996
73 Danton St,San Francisco,CA,94112,765000,2,1,960,2614,37.731348,-122.432192
33 Sadowa St,San Francisco,CA,94112,1900000,2,1,4955,6098,37.712073,-122.455334
461 Capistrano Ave,San Francisco,CA,94112,1150000,3,2,1421,2614,37.724628,-122.438926
2691 Alemany Blvd,San Francisco,CA,94112,899000,2,1,1238,1742,37.713811,-122.448529
105 Vienna St,San Francisco,CA,94112,705000,2,1,924,1742,37.726431,-122.425616
147 Gladstone Dr,San Francisco,CA,94112,899000,2,2,,,37.729146,-122.422007
531 Paris St,San Francisco,CA,94112,850000,6,5,1667,2500,37.720073,-122.435805
342 Lisbon St,San Francisco,CA,94112,1298000,3,3,2480,2614,37.722985,-122.433203
226 Trumbull St,San Francisco,CA,94112,699000,2,1,1025,2614,37.730689,-122.425479
130 Josiah Ave,San Francisco,CA,94112,848000,2,2,,2614,37.717562,-122.453906
349 Winding Way,San Francisco,CA,94112,1895000,4,5,3569,4356,37.709146,-122.437661
342 Delano Ave,San Francisco,CA,94112,1150000,3,3,2224,3049,37.723853,-122.443129
355 Granada Ave,San Francisco,CA,94112,1295000,3,2,,,37.724938,-122.457546
360 London St,San Francisco,CA,94112,1195000,3,2.5,1744,2614,37.723454,-122.435027
666 Geneva Ave,San Francisco,CA,94112,1350000,4,2.5,1522,1742,37.71915,-122.444324
546 Paris St,San Francisco,CA,94112,899000,2,1,1250,2614,37.720196,-122.436399
120 Brunswick St,San Francisco,CA,94112,899000,2,1,1182,2614,37.711785,-122.439549
300 College Ave,San Francisco,CA,94112,1885000,3,2,1950,3920,37.734368,-122.424121
355 Ney St,San Francisco,CA,94112,749950,2,1,862,1742,37.730711,-122.423468
126 Ashton Ave,San Francisco,CA,94112,1065000,3,2,1721,2614,37.720547,-122.461942
174 Majestic Ave,San Francisco,CA,94112,899000,3,2,1356,2614,37.715969,-122.45309
39 Chicago Way,San Francisco,CA,94112,898888,2,1,990,3485,37.710199,-122.429008
242 Minerva St,San Francisco,CA,94112,1128000,4,4,,3049,37.716001,-122.460692
572 Cordova St,San Francisco,CA,94112,899000,2,1,1137,2614,37.708549,-122.434563
2217 San Jose Ave,San Francisco,CA,94112,998000,2,1.5,900,2614,37.72124,-122.445784
28 Liebig St,San Francisco,CA,94112,1295000,8,3,2665,3920,37.708594,-122.455922
275 Santa Rosa Ave,San Francisco,CA,94112,1499126,5,2,1393,4356,37.728426,-122.4397
125 Margaret Ave,San Francisco,CA,94112,998000,4,2,1502,2614,37.716863,-122.452751
218 Thrift St,San Francisco,CA,94112,949000,2,1,1150,3049,37.717711,-122.459844
412 College Ave,San Francisco,CA,94112,1599000,3,2,1650,3920,37.733251,-122.423962
212 Sagamore St,San Francisco,CA,94112,1095000,4,2,1501,3049,37.711693,-122.459438
330 Edna St,San Francisco,CA,94112,1575000,5,2,2265,2614,37.72956,-122.446293
14 Edna St,San Francisco,CA,94112,925000,1,1,1145,2614,37.726924,-122.446276
489 Madrid St,San Francisco,CA,94112,740500,2,1,1900,2496,37.721717,-122.432388
461 Capistrano Ave,San Francisco,CA,94112,1150000,3,2,1421,2614,37.724628,-122.438926
531 Paris St,San Francisco,CA,94112,850000,6,5,1667,2500,37.720073,-122.435805
27 Stoneybrook Ave,San Francisco,CA,94112,899000,3,1,1016,2178,37.730615,-122.421503
210 Faxon Ave,San Francisco,CA,94112,758000,2,1,852,1873,37.718466,-122.45996
300 College Ave,San Francisco,CA,94112,1885000,3,2,1950,3920,37.734368,-122.424121
363 Howth St,San Francisco,CA,94112,899000,3,1,1635,3049,37.718802,-122.451898
360 London St,San Francisco,CA,94112,1195000,3,2.5,1744,2614,37.723454,-122.435027
28 Liebig St,San Francisco,CA,94112,1295000,8,3,2665,3920,37.708594,-122.455922
211 Miramar Ave,San Francisco,CA,94112,950000,2,2,1750,3049,37.722231,-122.458498
412 College Ave,San Francisco,CA,94112,1599000,3,2,1650,3920,37.733251,-122.423962
349 Winding Way,San Francisco,CA,94112,1895000,4,5,3569,4356,37.709146,-122.437661
73 Danton St,San Francisco,CA,94112,765000,2,1,960,2614,37.731348,-122.432192
126 Ashton Ave,San Francisco,CA,94112,1065000,3,2,1721,2614,37.720547,-122.461942
572 Cordova St,San Francisco,CA,94112,899000,2,1,1137,2614,37.708549,-122.434563
33 Sadowa St,San Francisco,CA,94112,1900000,2,1,4955,6098,37.712073,-122.455334
666 Geneva Ave,San Francisco,CA,94112,1350000,4,2.5,1522,1742,37.71915,-122.444324
147 Gladstone Dr,San Francisco,CA,94112,899000,2,2,,,37.729146,-122.422007
342 Lisbon St,San Francisco,CA,94112,1298000,3,3,2480,2614,37.722985,-122.433203
226 Trumbull St,San Francisco,CA,94112,699000,2,1,1025,2614,37.730689,-122.425479
330 Edna St,San Francisco,CA,94112,1575000,5,2,2265,2614,37.72956,-122.446293
105 Vienna St,San Francisco,CA,94112,705000,2,1,924,1742,37.726431,-122.425616
2217 San Jose Ave,San Francisco,CA,94112,998000,2,1.5,900,2614,37.72124,-122.445784
275 Santa Rosa Ave,San Francisco,CA,94112,1499126,5,2,1393,4356,37.728426,-122.4397
120 Brunswick St,San Francisco,CA,94112,899000,2,1,1182,2614,37.711785,-122.439549
355 Granada Ave,San Francisco,CA,94112,1295000,3,2,,,37.724938,-122.457546
130 Josiah Ave,San Francisco,CA,94112,848000,2,2,,2614,37.717562,-122.453906
342 Delano Ave,San Francisco,CA,94112,1150000,3,3,2224,3049,37.723853,-122.443129
2691 Alemany Blvd,San Francisco,CA,94112,899000,2,1,1238,1742,37.713811,-122.448529
242 Minerva St,San Francisco,CA,94112,1128000,4,4,,3049,37.716001,-122.460692
355 Ney St,San Francisco,CA,94112,749950,2,1,862,1742,37.730711,-122.423468
174 Majestic Ave,San Francisco,CA,94112,899000,3,2,1356,2614,37.715969,-122.45309
218 Thrift St,San Francisco,CA,94112,949000,2,1,1150,3049,37.717711,-122.459844
39 Chicago Way,San Francisco,CA,94112,898888,2,1,990,3485,37.710199,-122.429008
125 Margaret Ave,San Francisco,CA,94112,998000,4,2,1502,2614,37.716863,-122.452751
546 Paris St,San Francisco,CA,94112,899000,2,1,1250,2614,37.720196,-122.436399
212 Sagamore St,San Francisco,CA,94112,1095000,4,2,1501,3049,37.711693,-122.459438
4277 23rd St,San Francisco,CA,94114,1595000,2,1,,2614,37.752414,-122.438024
4144 23rd St,San Francisco,CA,94114,1595000,2,1.5,1320,2848,37.753072,-122.435327
740 Diamond St,San Francisco,CA,94114,1995000,3,1.5,,,37.751326,-122.436589
446 Hill St,San Francisco,CA,94114,2895000,4,3,2137,3049,37.755736,-122.431124
3767 23rd St,San Francisco,CA,94114,2995000,4,3,2491,2178,37.753126,-122.426866
1081 Church St,San Francisco,CA,94114,1995000,3,3,,1742,37.753633,-122.427351
52 Caselli Ave,San Francisco,CA,94114,1680000,3,1,1250,3023,37.759963,-122.440546
4406 24th St,San Francisco,CA,94114,1585000,2,1,1011,1742,37.751061,-122.440866
42 Graystone Ter,San Francisco,CA,94114,2150000,3,2.5,2600,2614,37.75843,-122.447619
51 Ord St,San Francisco,CA,94114,3600000,4,4,,1942,37.762993,-122.440018
617 Elizabeth St,San Francisco,CA,94114,1595000,3,1.5,1380,2614,37.751821,-122.434637
4127 20th St,San Francisco,CA,94114,3495000,4,2.5,,3049,37.757534,-122.433159
4376 17th St,San Francisco,CA,94114,3295000,3,3.5,,2178,37.762245,-122.442614
639 Grand View Ave,San Francisco,CA,94114,3395000,3,3.5,3660,3920,37.750073,-122.442345
4310 23rd St,San Francisco,CA,94114,2795000,4,3.5,,,37.752843,-122.439144
258 Caselli Ave,San Francisco,CA,94114,2595000,5,3.5,2832,1742,37.759269,-122.443893
24 Clarendon Ave,San Francisco,CA,94114,4400000,4,3.5,4437,4356,37.759132,-122.449312
4642 19th St,San Francisco,CA,94114,1985000,2,1.5,1800,2178,37.759175,-122.441529
564 Liberty St,San Francisco,CA,94114,2995000,4,3,2845,3049,37.75718,-122.433833
170 Palo Alto Ave,San Francisco,CA,94114,2914250,4,3,2683,6098,37.756996,-122.449991
52 Clarendon Ave,San Francisco,CA,94114,4295000,3,5,3730,2614,37.759048,-122.450222
571 Noe St,San Francisco,CA,94114,4200000,3,3.5,,2614,37.759912,-122.43236
4273 22nd St,San Francisco,CA,94114,1995000,3,2,1795,3049,37.753893,-122.440286
52 Yukon St,San Francisco,CA,94114,2988000,5,3.5,2938,2287,37.758749,-122.442405
140 Clarendon Ave,San Francisco,CA,94114,4995000,4,3.5,4350,6970,37.758589,-122.452371
688 Clipper St,San Francisco,CA,94114,2800000,4,3.5,2388,3523,37.74883,-122.439962
2104 Divisadero St,San Francisco,CA,94115,3895000,4,3,2740,2178,37.789302,-122.440403
2787 Pine St,San Francisco,CA,94115,1650000,4,4,2244,2178,37.786721,-122.441564
2440 Scott St,San Francisco,CA,94115,5995000,4,3.5,4392,2614,37.792403,-122.439368
1960 Golden Gate Ave,San Francisco,CA,94115,2299000,3,3,,2614,37.778365,-122.443237
145 Presidio Ave,San Francisco,CA,94115,7495000,4,4.5,4701,,37.790185,-122.447635
2148 Pine St,San Francisco,CA,94115,4200000,4,3.5,3539,3485,37.788549,-122.431195
2115 Bush St,San Francisco,CA,94115,5250000,4,4.5,3500,4356,37.786868,-122.432399
2406 Bush St,San Francisco,CA,94115,3500000,3,3,2375,2614,37.786796,-122.437057
1335 Divisadero St,San Francisco,CA,94115,2495000,4,2.5,2124,2614,37.781982,-122.43953
2094 Bush St,San Francisco,CA,94115,2790000,3,2.5,2346,2060,37.787466,-122.431702
2814 Clay St,San Francisco,CA,94115,3995000,6,4.5,,3920,37.790254,-122.439923
464 Dewey Blvd,San Francisco,CA,94116,1199000,3,1.5,,,37.746411,-122.460754
2662 46th Ave,San Francisco,CA,94116,1038000,2,2,900,3049,37.73689,-122.503949
2563 47th Ave,San Francisco,CA,94116,995000,2,1,878,3049,37.738682,-122.505806
2621 24th Ave,San Francisco,CA,94116,1149500,2,1,1160,3049,37.738588,-122.481081
1845 Pacheco St,San Francisco,CA,94116,1298888,3,2,1951,2060,37.750151,-122.480294
2111 21st Ave,San Francisco,CA,94116,1095000,2,1.5,1800,2178,37.74826,-122.478488
2631 Ulloa St,San Francisco,CA,94116,1498000,4,4,2087,1307,37.740636,-122.484763
2127 42nd Ave,San Francisco,CA,94116,788000,2,1,1162,3049,37.746989,-122.501017
3326 Vicente St,San Francisco,CA,94116,1095000,3,2,1549,2614,37.738368,-122.502768
2783 41st Ave,San Francisco,CA,94116,995000,2,1,1012,1307,37.734884,-122.499072
2531 Pacheco St,San Francisco,CA,94116,925000,2,1,1175,2614,37.749765,-122.487487
2179 27th Ave,San Francisco,CA,94116,1350000,2,1,1400,3049,37.746809,-122.484883
2122 14th Ave,San Francisco,CA,94116,2498000,6,4.5,4144,,37.748482,-122.470264
2210 45th Ave,San Francisco,CA,94116,898000,2,1,973,2178,37.745272,-122.503514
2005 21st Ave,San Francisco,CA,94116,1388000,3,3,1705,2178,37.75019,-122.478624
468 Dewey Blvd,San Francisco,CA,94116,1595000,3,1.5,1620,3920,37.746335,-122.460852
2546 28th Ave,San Francisco,CA,94116,1595000,4,4,2190,3049,37.739881,-122.484814
2195 42nd Ave,San Francisco,CA,94116,1249000,5,5,1687,1742,37.745827,-122.50085
2695 23rd Ave,San Francisco,CA,94116,1700000,4,3,1525,2614,37.737406,-122.479877
2828 Wawona St,San Francisco,CA,94116,1196000,3,2,1475,2500,37.736732,-122.497321
3015 Ulloa St,San Francisco,CA,94116,1389000,5,2.5,1881,3049,37.740353,-122.488774
2611 20th Ave,San Francisco,CA,94116,995000,2,1,1048,2178,37.738985,-122.476745
2775 40th Ave,San Francisco,CA,94116,1495000,4,3,1947,9148,37.735072,-122.498125
1934 21st Ave,San Francisco,CA,94116,1919000,5,4,2084,3049,37.751589,-122.478106
2059 47th Ave,San Francisco,CA,94116,1699000,6,3,3470,3049,37.748066,-122.506468
2740 38th Ave,San Francisco,CA,94116,1798000,6,4,2990,3049,37.735739,-122.495276
2214 34th Ave,San Francisco,CA,94116,1549000,5,3,2575,2614,37.745735,-122.49171
2355 46th Ave,San Francisco,CA,94116,1288000,3,2,1550,3001,37.742591,-122.505008
2071 35th Ave,San Francisco,CA,94116,1289000,4,3,1766,3049,37.748429,-122.493596
2066 23rd Ave,San Francisco,CA,94116,1235000,2,2,1350,3049,37.749095,-122.480083
2275 26th Ave,San Francisco,CA,94116,1595000,3,1,1600,3049,37.745059,-122.483685
866 Pacheco St,San Francisco,CA,94116,1698000,3,2.5,1864,3920,37.753955,-122.469449
2230 31st Ave,San Francisco,CA,94116,1385000,3,4,1455,3049,37.745606,-122.488436
2180 Funston Ave,San Francisco,CA,94116,1889000,4,3,2600,3049,37.747501,-122.469123
2295 14th Ave,San Francisco,CA,94116,1740000,3,2,2048,2178,37.745288,-122.470651
2405 32nd Ave,San Francisco,CA,94116,2900000,5,5,3964,3049,37.742016,-122.489729
2711 40th Ave,San Francisco,CA,94116,1300000,4,2,1212,1751,37.736176,-122.49802
2046 48th Ave,San Francisco,CA,94116,1895000,4,2.5,2030,3049,37.748253,-122.506898
2100 46th Ave,San Francisco,CA,94116,1395000,3,2,1803,3049,37.747238,-122.504685
2260 15th Ave,San Francisco,CA,94116,1598888,3,2,1550,2614,37.74587,-122.471061
70 Santa Rita Ave,San Francisco,CA,94116,2389000,3,2.5,2520,3485,37.747358,-122.464733
1151-1153 Fell St,San Francisco,CA,94117,1900000,4,2,2788,2614,37.773918,-122.436796
1543 Cole St,San Francisco,CA,94117,3895000,3,3.5,3036,2614,37.760226,-122.449119
1517 Shrader St,San Francisco,CA,94117,2680000,4,2,2430,4356,37.761111,-122.450888
294 Upper Ter,San Francisco,CA,94117,1895000,3,2,,2178,37.762716,-122.445586
1342 Hayes St,San Francisco,CA,94117,4885000,4,3.5,3765,3485,37.775178,-122.438595
1284 Stanyan St,San Francisco,CA,94117,3600000,2,2,1445,10018.8,37.759981,-122.451247
126 Cole St,San Francisco,CA,94117,2500000,6,1,2300,2614,37.773882,-122.450794
128 Woodland Ave,San Francisco,CA,94117,4200000,4,3.5,3514,2614,37.761983,-122.453218
267 Buena Vista Ave E,San Francisco,CA,94117,3295000,3,3,2400,2178,37.768005,-122.439133
3800 Washington St,San Francisco,CA,94118,30000000,9,7.5,,20473.2,37.789136,-122.455972
3530 Washington St,San Francisco,CA,94118,10250000,5,4.5,6245,3049,37.789714,-122.451257
3990 Washington St,San Francisco,CA,94118,9950000,6,6.5,7600,4443,37.788606,-122.459065
55 Palm Ave,San Francisco,CA,94118,6995000,6,6.5,6305,4792,37.784634,-122.458322
766 10th Ave,San Francisco,CA,94118,1875000,3,3.5,2100,,37.773934,-122.467739
3363 Washington St,San Francisco,CA,94118,4995000,6,5.5,,4792,37.78956,-122.448209
449 Parker Ave,San Francisco,CA,94118,5700000,5,5,5150,6600,37.778464,-122.453864
115 Walnut St,San Francisco,CA,94118,6500000,3,3.5,2925,3485,37.790086,-122.449438
233 Stanyan St,San Francisco,CA,94118,1995000,2,2,,2178,37.776724,-122.455316
2028 McAllister St,San Francisco,CA,94118,3895000,5,5.5,3585,3485,37.77717,-122.445536
318 6th Ave,San Francisco,CA,94118,1998800,3,3,2450,3049,37.782337,-122.46405
3 Cook St,San Francisco,CA,94118,1995000,3,2.5,,4356,37.783598,-122.452828
708 2nd Ave,San Francisco,CA,94118,2999000,5,3,3418,3485,37.775323,-122.459275
631 12th Ave,San Francisco,CA,94118,1975000,4,3,2250,3920,37.776248,-122.470711
414 12th Ave,San Francisco,CA,94118,2595000,3,3.5,2930,3049,37.780127,-122.470332
2736 Fulton St,San Francisco,CA,94118,2998000,5,5.5,3270,2831,37.774234,-122.461259
538 16th Ave,San Francisco,CA,94118,1595000,3,1,2340,3049,37.777856,-122.47456
415 Cornwall St,San Francisco,CA,94118,1695000,3,2,2584,2614,37.784594,-122.463833
140 Sea Cliff Ave,San Francisco,CA,94121,19500000,5,5.5,6305,6970,37.789056,-122.487309
494 46th Ave,San Francisco,CA,94121,1599000,3,1.5,1444,3106,37.779294,-122.506977
841 47th Ave,San Francisco,CA,94121,2098000,5,4,2897,3485,37.77254,-122.508158
255 28th Ave,San Francisco,CA,94121,3495000,4,3.5,3225,3049,37.784571,-122.488607
5440 Anza St,San Francisco,CA,94121,2590000,5,4,2828,3049,37.777431,-122.506774
414 36th Ave,San Francisco,CA,94121,3998000,5,4,3968,4356,37.781178,-122.496375
715 32nd Ave,San Francisco,CA,94121,2995000,5,6,3060,3049,37.775525,-122.492259
895 46th Ave,San Francisco,CA,94121,1690000,6,3,2258,1307,37.771679,-122.506916
663 22nd Ave,San Francisco,CA,94121,2950000,4,6,3425,3049,37.775259,-122.481491
763 45th Ave,San Francisco,CA,94121,1000000,2,2,1285,3049,37.774133,-122.506129
882 37th Ave,San Francisco,CA,94121,1199000,2,1,1565,2178,37.77235,-122.496814
810 42nd Ave,San Francisco,CA,94121,1328000,3,3.5,1695,2178,37.77334,-122.502228
762 48th Ave,San Francisco,CA,94121,1530000,4,3,2130,3049,37.774003,-122.508677
546 33rd Ave,San Francisco,CA,94121,1798000,5,5,1975,3049,37.778759,-122.49291
571 34th Ave,San Francisco,CA,94121,1298000,2,1,1446,3049,37.778269,-122.494608
635 24th Ave,San Francisco,CA,94121,1695000,3,2,,3049,37.777478,-122.483801
463 27th Ave,San Francisco,CA,94121,2000000,5,3,2282,3001,37.780737,-122.487261
494-498 35th Ave,San Francisco,CA,94121,2098000,4,3.5,,3049,37.779914,-122.495296
801 38th Ave,San Francisco,CA,94121,1750000,7,3,2983,2178,37.773645,-122.498524
723 43rd Ave,San Francisco,CA,94121,1450000,2,1,1300,3049,37.774917,-122.504038
794 48th Ave,San Francisco,CA,94121,1195000,3,2,1180,1742,37.77347,-122.508744
595 44th Ave,San Francisco,CA,94121,1850000,4,3,2200,2178,37.777367,-122.505242
667 32nd Ave,San Francisco,CA,94121,1199000,2,1,1620,3049,37.776565,-122.492333
1358 42nd Ave,San Francisco,CA,94122,1299999,4,2,1386,3000,37.761385,-122.501365
1242 23rd Ave,San Francisco,CA,94122,1649000,3,1.5,1800,3049,37.764426,-122.481153
1506 41st Ave,San Francisco,CA,94122,1095000,3,2,1464,1742,37.75859,-122.50017
1427 35th Ave,San Francisco,CA,94122,1198000,2,1,1645,2614,37.760376,-122.494413
1583 31st Ave,San Francisco,CA,94122,1395000,2,1,1440,2178,37.757738,-122.489892
1398 19th Ave,San Francisco,CA,94122,2349000,5,4,2610,1742,37.761854,-122.47674
1255 38th Ave,San Francisco,CA,94122,1395000,3,2,1640,3049,37.763479,-122.497871
1782 29th Ave,San Francisco,CA,94122,888000,3,2,1575,1742,37.754122,-122.486987
1766 32nd Ave,San Francisco,CA,94122,2488000,4,4,4212,2997,37.754269,-122.490116
1539 41st Ave,San Francisco,CA,94122,1295000,2,2.5,1545,3049,37.758022,-122.500711
1846 38th Ave,San Francisco,CA,94122,1100000,2,1,1301,2997,37.752417,-122.496439
1828 29th Ave,San Francisco,CA,94122,1068000,2,1,1162,3049,37.753161,-122.486812
1559 32nd Ave,San Francisco,CA,94122,1348888,2,2.5,2472,3049,37.758105,-122.491044
1917 Judah St,San Francisco,CA,94122,1100000,2,1.5,1000,2614,37.761198,-122.482784
1679 21st Ave,San Francisco,CA,94122,1780000,4,4.5,2309,3049,37.756419,-122.479102
1483 19th Ave,San Francisco,CA,94122,1100000,3,2,1495,2326,37.760172,-122.477179
1839 40th Ave,San Francisco,CA,94122,998000,3,2,,3049,37.752472,-122.499247
1622 39th Ave,San Francisco,CA,94122,1588000,4,3,1725,3049,37.756556,-122.4978
1578 34th Ave,San Francisco,CA,94122,1488000,4,2,1682,3049,37.757691,-122.492507
4021 Kirkham St,San Francisco,CA,94122,975000,2,2,825,2614,37.758387,-122.504086
1663 26th Ave,San Francisco,CA,94122,1299000,3,3,1700,43560,37.756457,-122.484481
1547 20th Ave,San Francisco,CA,94122,1300000,2,1,1304,3485,37.758884,-122.478202
1883 40th Ave,San Francisco,CA,94122,998000,3,2,1214,2178,37.751719,-122.499152
1866 23rd Ave,San Francisco,CA,94122,1500000,2,1,1500,3049,37.752826,-122.480344
2820 Scott St,San Francisco,CA,94123,27500000,7,11,16000,6970,37.795901,-122.439947
3107 Franklin St,San Francisco,CA,94123,3890000,3,5,,,37.803172,-122.426896
3733 Broderick St,San Francisco,CA,94123,5795000,4,3.5,4341,5227,37.804793,-122.445874
3624 Scott St,San Francisco,CA,94123,3495000,3,3.5,,2508,37.803433,-122.441682
2833 Vallejo St,San Francisco,CA,94123,19000000,4,6.5,6050,3485,37.793825,-122.443872
3560 Baker St,San Francisco,CA,94123,8750000,5,4.5,6055,3920,37.804107,-122.446782
2265 Union St,San Francisco,CA,94123,4900000,4,2.5,3545,3485,37.796672,-122.436514
2536 Greenwich St,San Francisco,CA,94123,8455000,4,6.5,6016,4356,37.798523,-122.441491
2290 Green St,San Francisco,CA,94123,6750000,5,4.5,4198,2614,37.79622,-122.436655
154 Alhambra St,San Francisco,CA,94123,2495000,2,1,2164,3485,37.802181,-122.439086
3520 Baker St,San Francisco,CA,94123,6749000,4,3.5,,,37.803632,-122.446686
2816 Laguna St,San Francisco,CA,94123,3995000,4,3.5,2934,,37.797417,-122.430204
1974 Filbert St,San Francisco,CA,94123,5250000,4,3,3670,2614,37.798773,-122.432024
1815 Vallejo St,San Francisco,CA,94123,4895000,5,3,3600,6534,37.796013,-122.427263
1906 Greenwich St,San Francisco,CA,94123,2995000,4,2,2346,,37.799754,-122.43142
2008 Vallejo St,San Francisco,CA,94123,5000000,5,3,,3485,37.796069,-122.430538
1650 Bay St,San Francisco,CA,94123,2995000,3,2.5,2399,2178,37.803198,-122.434241
114 Bridgeview Dr,San Francisco,CA,94124,899000,3,2,1475,3049,37.735102,-122.395737
1262 Quesada Ave,San Francisco,CA,94124,749000,3,2,1356,2614,37.728922,-122.383124
84 Exeter St,San Francisco,CA,94124,699000,3,2.5,1840,2614,37.721674,-122.399157
1641-1643 Palou Ave,San Francisco,CA,94124,899000,5,3.5,1565,2614,37.734288,-122.391988
1421 Ingalls St,San Francisco,CA,94124,1099000,5,3.5,2908,3920,37.729995,-122.382904
11 Carpenter Ct,San Francisco,CA,94124,1248888,3,2.5,1838,3485,37.734915,-122.385281
1091-1095 Gilman Ave,San Francisco,CA,94124,899000,3,1,3700,2614,37.719021,-122.390066
1119 Hollister Ave,San Francisco,CA,94124,1150000,4,3,1700,2614,37.719752,-122.393021
1426 Underwood Ave,San Francisco,CA,94124,799995,5,2,1596,3349,37.728185,-122.388488
1484 Newcomb Ave,San Francisco,CA,94124,759000,3,1,798,2614,37.734166,-122.387392
1712 LA Salle Ave,San Francisco,CA,94124,699000,2,1,841,2614,37.738013,-122.390817
833 Ingerson Ave,San Francisco,CA,94124,1499000,5,3.5,2401,2614,37.717247,-122.390272
1344 Thomas Ave,San Francisco,CA,94124,649000,2,1,1205,2614,37.727905,-122.386329
1466 Revere Ave,San Francisco,CA,94124,859000,3,2,1789,2614,37.730454,-122.387489
1406 Thomas Ave,San Francisco,CA,94124,1095000,3,2.5,,1742,37.728578,-122.387589
1519 LA Salle Ave,San Francisco,CA,94124,995000,3,1,,2614,37.735454,-122.387374
1606 Quesada Ave,San Francisco,CA,94124,799000,2,1,,2614,37.7326,-122.389616
1647 Quesada Ave,San Francisco,CA,94124,798000,3,2,1670,2614,37.732597,-122.390681
3225 Ingalls St,San Francisco,CA,94124,799000,2,2,825,2614,37.718626,-122.393074
1819 Palou Ave,San Francisco,CA,94124,725000,3,1,790,2600,37.736324,-122.395582
1370 Quesada Ave,San Francisco,CA,94124,814900,4,1.5,1211,2495,37.73006,-122.385129
1947 Palou Ave,San Francisco,CA,94124,749000,2,1,1164,2614,37.737464,-122.397595
1630 Wallace Loop,San Francisco,CA,94124,755000,2,1,1064,2614,37.728026,-122.391546
1638 Quesada Ave,San Francisco,CA,94124,895000,3,1,,,37.732919,-122.390179
1216 Newhall St,San Francisco,CA,94124,899000,3,2,1472,1125,37.736562,-122.391699
2083 Palou Ave,San Francisco,CA,94124,899000,3,2,1067,2614,37.738867,-122.400059
1487 Underwood Ave,San Francisco,CA,94124,950000,5,2,1488,2614,37.728376,-122.389897
1430 Oakdale Ave,San Francisco,CA,94124,1275000,3,2,1450,2614,37.733036,-122.387039
1670 Newcomb Ave,San Francisco,CA,94124,850000,2,1,1041,2495,37.736219,-122.390991
6 Flora St,San Francisco,CA,94124,995000,3,2,1942,2178,37.732606,-122.394431
1463 Thomas Ave,San Francisco,CA,94124,888000,2,1,995,2614,37.72876,-122.388908
176 Topeka Ave,San Francisco,CA,94124,995000,2,1,1034,2178,37.73329,-122.398215
607 Los Palmos Dr,San Francisco,CA,94127,2495000,3,2.5,3440,6534,37.73457,-122.455765
117 Robinhood Dr,San Francisco,CA,94127,3800000,5,4.5,4005,8276,37.737029,-122.456512
111 Santa Paula Ave,San Francisco,CA,94127,3300000,3,3,,5663,37.737747,-122.462991
300 Molimo Dr,San Francisco,CA,94127,3300000,4,5.5,3338,4356,37.736928,-122.45185
88 Los Palmos Dr,San Francisco,CA,94127,1195000,3,2,1260,3920,37.735176,-122.447535
35 Rockwood Ct,San Francisco,CA,94127,2600000,3,3,3018,,37.742683,-122.456992
190 San Benito Way,San Francisco,CA,94127,3175000,4,4,2975,4792,37.733409,-122.467305
608 Foerster St,San Francisco,CA,94127,1295000,2,2,1345,2614,37.733269,-122.448599
2235 Ocean Ave,San Francisco,CA,94127,1450000,4,2.5,,5663,37.728117,-122.467956
35 Keystone Way,San Francisco,CA,94127,2398000,4,5,2429,3049,37.726377,-122.462859
59 Rosewood Dr,San Francisco,CA,94127,1585000,3,2.5,2395,4356,37.733678,-122.459893
672 Teresita Blvd,San Francisco,CA,94127,1295000,2,1.5,1300,3049,37.736131,-122.446473
222 Juanita Way,San Francisco,CA,94127,1225000,2,2,1395,3049,37.741202,-122.455841
262 Evelyn Way,San Francisco,CA,94127,1049000,3,1,1006,2614,37.742411,-122.449065
107 Marietta Dr,San Francisco,CA,94127,2695000,4,3.5,2355,2614,37.74114,-122.448048
